{"type":"FeatureCollection","features":[{"type":"Feature","geometry":{"type":"Point","coordinates":[-106.50251,32.14622]},"properties":{"name":"Fort Bliss AAA Ranges","branch":"Army","component":"Army Active","state":"New Mexico","joint":null}},{"type":"Feature","geometry":{"type":"Point","coordinates":[-80.79483,32.46526]},"properties":{"name":"MCAS Beaufort LB Housing","branch":"Marine Corps","component":"MC Active","state":"South Carolina","joint":null}},{"type":"Feature","geometry":{"type":"Point","coordinates":[-80.71472,32.47503]},"properties":{"name":"MCAS Beaufort","branch":"Marine Corps","component":"MC Active","state":"South Carolina","joint":null}},{"type":"Feature","geometry":{"type":"Point","coordinates":[-81.52488,30.40134]},"properties":{"name":"MCSF Blount Island","branch":"Marine Corps","component":"MC Active","state":"Florida","joint":null}},{"type":"Feature","geometry":{"type":"Point","coordinates":[-76.34961,34.89533]},"properties":{"name":"OLF Atlantic","branch":"Marine Corps","component":"MC Active","state":"North Carolina","joint":null}},{"type":"Feature","geometry":{"type":"Point","coordinates":[-76.45747,35.00989]},"properties":{"name":"Point Of Marsh Target","branch":"Marine Corps","component":"MC Active","state":"North Carolina","joint":null}},{"type":"Feature","geometry":{"type":"Point","coordinates":[-76.89028,34.91514]},"properties":{"name":"MCAS Cherry Point","branch":"Marine Corps","component":"MC Active","state":"North Carolina","joint":null}},{"type":"Feature","geometry":{"type":"Point","coordinates":[-77.02789,34.69207]},"properties":{"name":"ALF Bogue","branch":"Marine Corps","component":"MC Active","state":"North Carolina","joint":null}},{"type":"Feature","geometry":{"type":"Point","coordinates":[-77.29937,34.63835]},"properties":{"name":"MCB Camp Lejeune","branch":"Marine Corps","component":"MC Active","state":"North Carolina","joint":null}},{"type":"Feature","geometry":{"type":"Point","coordinates":[-77.49913,34.62161]},"properties":{"name":"MCB Camp Lejeune West Site","branch":"Marine Corps","component":"MC Active","state":"North Carolina","joint":null}},{"type":"Feature","geometry":{"type":"Point","coordinates":[-77.25864,35.02282]},"properties":{"name":"MCB Camp Lejeune Oak Grove","branch":"Marine Corps","component":"MC Active","state":"North Carolina","joint":null}},{"type":"Feature","geometry":{"type":"Point","coordinates":[-80.69534,32.33751]},"properties":{"name":"MCRD Beaufort Parris Island","branch":"Marine Corps","component":"MC Active","state":"South Carolina","joint":null}},{"type":"Feature","geometry":{"type":"Point","coordinates":[-116.87179,34.89063]},"properties":{"name":"MCLB Barstow Yermo Area","branch":"Marine Corps","component":"MC Active","state":"California","joint":null}},{"type":"Feature","geometry":{"type":"Point","coordinates":[-116.94488,34.85922]},"properties":{"name":"MCLB Barstow","branch":"Marine Corps","component":"MC Active","state":"California","joint":null}},{"type":"Feature","geometry":{"type":"Point","coordinates":[-119.518,38.5885]},"properties":{"name":"MWTC Bridgeport","branch":"Marine Corps","component":"MC Active","state":"California","joint":null}},{"type":"Feature","geometry":{"type":"Point","coordinates":[-157.98045,21.39979]},"properties":{"name":"MCB Hawaii Manana Capehart","branch":"Marine Corps","component":"MC Active","state":"Hawaii","joint":null}},{"type":"Feature","geometry":{"type":"Point","coordinates":[-157.9709,21.38426]},"properties":{"name":"MCB Hawaii Pearl City Annex","branch":"Marine Corps","component":"MC Active","state":"Hawaii","joint":null}},{"type":"Feature","geometry":{"type":"Point","coordinates":[-157.98798,21.31746]},"properties":{"name":"MCB Hawaii Puuloa-Oahu","branch":"Marine Corps","component":"MC Active","state":"Hawaii","joint":null}},{"type":"Feature","geometry":{"type":"Point","coordinates":[-157.90603,21.38618]},"properties":{"name":"MCB Camp Smith","branch":"Marine Corps","component":"MC Active","state":"Hawaii","joint":null}},{"type":"Feature","geometry":{"type":"Point","coordinates":[-157.71653,21.3619]},"properties":{"name":"MC Trng Area Bellows","branch":"Marine Corps","component":"MC Active","state":"Hawaii","joint":null}},{"type":"Feature","geometry":{"type":"Point","coordinates":[-157.75207,21.44551]},"properties":{"name":"MCB Hawaii Kaneohe","branch":"Marine Corps","component":"MC Active","state":"Hawaii","joint":null}},{"type":"Feature","geometry":{"type":"Point","coordinates":[-117.08581,32.87655]},"properties":{"name":"MCAS Miramar","branch":"Marine Corps","component":"MC Active","state":"California","joint":null}},{"type":"Feature","geometry":{"type":"Point","coordinates":[-117.42344,33.36213]},"properties":{"name":"MCB Camp Pendleton","branch":"Marine Corps","component":"MC Active","state":"California","joint":null}},{"type":"Feature","geometry":{"type":"Point","coordinates":[-117.1993,32.73977]},"properties":{"name":"MCRD San Diego","branch":"Marine Corps","component":"MC Active","state":"California","joint":null}},{"type":"Feature","geometry":{"type":"Point","coordinates":[-117.22065,32.72886]},"properties":{"name":"MCRD San Diego Former NTC","branch":"Marine Corps","component":"MC Active","state":"California","joint":null}},{"type":"Feature","geometry":{"type":"Point","coordinates":[-116.13812,34.45902]},"properties":{"name":"Twentynine Palms Main Base","branch":"Marine Corps","component":"MC Active","state":"California","joint":null}},{"type":"Feature","geometry":{"type":"Point","coordinates":[-115.31065,33.31216]},"properties":{"name":"Choc Mt Air Gnry Rng","branch":"Marine Corps","component":"MC Active","state":"California","joint":null}},{"type":"Feature","geometry":{"type":"Point","coordinates":[-114.60056,32.64569]},"properties":{"name":"MCAS Yuma","branch":"Marine Corps","component":"MC Active","state":"Arizona","joint":null}},{"type":"Feature","geometry":{"type":"Point","coordinates":[-114.08332,32.49823]},"properties":{"name":"Barry Goldwater Range","branch":"Marine Corps","component":"MC Active","state":"Arizona","joint":null}},{"type":"Feature","geometry":{"type":"Point","coordinates":[-114.65601,32.70094]},"properties":{"name":"MCAS Yuma Hsg-Off Base FY81","branch":"Marine Corps","component":"MC Active","state":"Arizona","joint":null}},{"type":"Feature","geometry":{"type":"Point","coordinates":[-77.07377,38.86936]},"properties":{"name":"HQBN Henderson Hall Arlington","branch":"Army","component":"Army Active","state":"Virginia","joint":"Joint Base Myer - Henderson Hall"}},{"type":"Feature","geometry":{"type":"Point","coordinates":[-84.05422,31.55185]},"properties":{"name":"MCLB Albany","branch":"Marine Corps","component":"MC Active","state":"Georgia","joint":null}},{"type":"Feature","geometry":{"type":"Point","coordinates":[-77.45764,38.55235]},"properties":{"name":"MCB Quantico","branch":"Marine Corps","component":"MC Active","state":"Virginia","joint":null}},{"type":"Feature","geometry":{"type":"Point","coordinates":[-84.12062,31.6014]},"properties":{"name":"MCLB Albany Housing Area #1","branch":"Marine Corps","component":"MC Active","state":"Georgia","joint":null}},{"type":"Feature","geometry":{"type":"Point","coordinates":[144.68608,13.39052]},"properties":{"name":"NAVBASE Guam Magazine Reservoir, Naval Magazine","branch":"Navy","component":"Navy Active","state":"Guam","joint":"Joint Region Marianas"}},{"type":"Feature","geometry":{"type":"Point","coordinates":[144.69295,13.35952]},"properties":{"name":"NAVBASE Guam Naval Magazine","branch":"Navy","component":"Navy Active","state":"Guam","joint":"Joint Region Marianas"}},{"type":"Feature","geometry":{"type":"Point","coordinates":[144.67796,13.40277]},"properties":{"name":"NAVBASE Guam Apra Heights","branch":"Navy","component":"Navy Active","state":"Guam","joint":"Joint Region Marianas"}},{"type":"Feature","geometry":{"type":"Point","coordinates":[144.68717,13.43241]},"properties":{"name":"Tenjo Vista","branch":"Navy","component":"Navy Active","state":"Guam","joint":"Joint Region Marianas"}},{"type":"Feature","geometry":{"type":"Point","coordinates":[144.69815,13.44877]},"properties":{"name":"Sasa Valley","branch":"Navy","component":"Navy Active","state":"Guam","joint":"Joint Region Marianas"}},{"type":"Feature","geometry":{"type":"Point","coordinates":[144.72266,13.46545]},"properties":{"name":"Nimitz Hill","branch":"Navy","component":"Navy Active","state":"Guam","joint":"Joint Region Marianas"}},{"type":"Feature","geometry":{"type":"Point","coordinates":[144.74101,13.4734]},"properties":{"name":"Naval Hospital","branch":"Navy","component":"Navy Active","state":"Guam","joint":"Joint Region Marianas"}},{"type":"Feature","geometry":{"type":"Point","coordinates":[144.80819,13.54204]},"properties":{"name":"Tanguisson Point","branch":"Navy","component":"Navy Active","state":"Guam","joint":"Joint Region Marianas"}},{"type":"Feature","geometry":{"type":"Point","coordinates":[144.8304,13.55012]},"properties":{"name":"NAVBASE Guam Finegayan, South","branch":"Navy","component":"Navy Active","state":"Guam","joint":"Joint Region Marianas"}},{"type":"Feature","geometry":{"type":"Point","coordinates":[144.82905,13.47739]},"properties":{"name":"NAVBASE Guam Barrigada","branch":"Navy","component":"Navy Active","state":"Guam","joint":"Joint Region Marianas"}},{"type":"Feature","geometry":{"type":"Point","coordinates":[144.80972,13.50975]},"properties":{"name":"Andersen Supply Annex","branch":"Navy","component":"Navy Active","state":"Guam","joint":null}},{"type":"Feature","geometry":{"type":"Point","coordinates":[144.81151,13.51818]},"properties":{"name":"Andersen Petrol Product Storage Annex #2","branch":"Navy","component":"Navy Active","state":"Guam","joint":null}},{"type":"Feature","geometry":{"type":"Point","coordinates":[144.86244,13.58702]},"properties":{"name":"Andersen Petrol Product Storage Annex #1","branch":"Navy","component":"Navy Active","state":"Guam","joint":null}},{"type":"Feature","geometry":{"type":"Point","coordinates":[144.81355,13.45607]},"properties":{"name":"Andersen Communications Annex #2","branch":"Navy","component":"Navy Active","state":"Guam","joint":null}},{"type":"Feature","geometry":{"type":"Point","coordinates":[144.89594,13.59842]},"properties":{"name":"Andersen AFB","branch":"Navy","component":"Navy Active","state":"Guam","joint":"Joint Region Marianas"}},{"type":"Feature","geometry":{"type":"Point","coordinates":[144.7368,13.31069]},"properties":{"name":"Dandan","branch":"Navy","component":"Navy Active","state":"Guam","joint":"Joint Region Marianas"}},{"type":"Feature","geometry":{"type":"Point","coordinates":[144.86512,13.50913]},"properties":{"name":"Andersen Administration Annex","branch":"Navy","component":"Navy Active","state":"Guam","joint":null}},{"type":"Feature","geometry":{"type":"Point","coordinates":[144.81523,13.52173]},"properties":{"name":"NAVBASE Guam Harmon","branch":"Navy","component":"Navy Active","state":"Guam","joint":"Joint Region Marianas"}},{"type":"Feature","geometry":{"type":"Point","coordinates":[144.86545,13.48909]},"properties":{"name":"NAVBASE Guam Marbo","branch":"Navy","component":"Navy Active","state":"Guam","joint":"Joint Region Marianas"}},{"type":"Feature","geometry":{"type":"Point","coordinates":[144.765,13.47282]},"properties":{"name":"Agana","branch":"Navy","component":"Navy Active","state":"Guam","joint":"Joint Region Marianas"}},{"type":"Feature","geometry":{"type":"Point","coordinates":[144.91494,13.53975]},"properties":{"name":"Santa Rosa Parcel A","branch":"Navy","component":"Navy Active","state":"Guam","joint":null}},{"type":"Feature","geometry":{"type":"Point","coordinates":[-76.61884,37.28457]},"properties":{"name":"Cheatham Annex","branch":"Navy","component":"Navy Active","state":"Virginia","joint":null}},{"type":"Feature","geometry":{"type":"Point","coordinates":[-76.36291,36.88874]},"properties":{"name":"Craney Island","branch":"Navy","component":"Navy Active","state":"Virginia","joint":null}},{"type":"Feature","geometry":{"type":"Point","coordinates":[-76.32223,36.92136]},"properties":{"name":"NSA Norfolk Fire Fighters School","branch":"Navy","component":"Navy Active","state":"Virginia","joint":null}},{"type":"Feature","geometry":{"type":"Point","coordinates":[-76.58532,37.2445]},"properties":{"name":"NWS Yorktown","branch":"Navy","component":"Navy Active","state":"Virginia","joint":null}},{"type":"Feature","geometry":{"type":"Point","coordinates":[-76.29798,36.81673]},"properties":{"name":"NSA Norfolk NSY","branch":"Navy","component":"Navy Active","state":"Virginia","joint":null}},{"type":"Feature","geometry":{"type":"Point","coordinates":[-76.31539,36.7886]},"properties":{"name":"NSA Norfolk St Juliens Creek Annex","branch":"Navy","component":"Navy Active","state":"Virginia","joint":null}},{"type":"Feature","geometry":{"type":"Point","coordinates":[-76.33333,36.79831]},"properties":{"name":"NSA Norfolk Stanley Court/NNSY","branch":"Navy","component":"Navy Active","state":"Virginia","joint":null}},{"type":"Feature","geometry":{"type":"Point","coordinates":[-76.48639,37.21577]},"properties":{"name":"Yorktown Fuel Depot","branch":"Navy","component":"Navy Active","state":"Virginia","joint":null}},{"type":"Feature","geometry":{"type":"Point","coordinates":[-76.31654,36.91935]},"properties":{"name":"NSA Norfolk SDA Area","branch":"Navy","component":"Navy Active","state":"Virginia","joint":null}},{"type":"Feature","geometry":{"type":"Point","coordinates":[-76.26649,36.5591]},"properties":{"name":"NSA Norfolk Northwest Chesapke Va","branch":"Navy","component":"Navy Active","state":"Virginia","joint":null}},{"type":"Feature","geometry":{"type":"Point","coordinates":[-76.30011,36.92453]},"properties":{"name":"NSA Norfolk","branch":"Navy","component":"Navy Active","state":"Virginia","joint":null}},{"type":"Feature","geometry":{"type":"Point","coordinates":[-76.32324,36.81003]},"properties":{"name":"NSA Norfolk New Gosport/NNSY","branch":"Navy","component":"Navy Active","state":"Virginia","joint":null}},{"type":"Feature","geometry":{"type":"Point","coordinates":[-76.02989,36.81383]},"properties":{"name":"NAS Oceana","branch":"Navy","component":"Navy Active","state":"Virginia","joint":null}},{"type":"Feature","geometry":{"type":"Point","coordinates":[-76.1241,36.80165]},"properties":{"name":"NAS Oceana Midway Manor","branch":"Navy","component":"Navy Active","state":"Virginia","joint":null}},{"type":"Feature","geometry":{"type":"Point","coordinates":[-76.3091,36.84671]},"properties":{"name":"Naval Medical Center Portsmouth","branch":"Navy","component":"Navy Active","state":"Virginia","joint":null}},{"type":"Feature","geometry":{"type":"Point","coordinates":[-76.30224,36.90253]},"properties":{"name":"NSA Norfolk Lafayette Rvr Complex","branch":"Navy","component":"Navy Active","state":"Virginia","joint":null}},{"type":"Feature","geometry":{"type":"Point","coordinates":[-75.96408,36.78683]},"properties":{"name":"NAS Oceana Dam Neck","branch":"Navy","component":"Navy Active","state":"Virginia","joint":null}},{"type":"Feature","geometry":{"type":"Point","coordinates":[-76.29803,36.94243]},"properties":{"name":"NS Norfolk","branch":"Navy","component":"Navy Active","state":"Virginia","joint":null}},{"type":"Feature","geometry":{"type":"Point","coordinates":[-76.16256,36.91625]},"properties":{"name":"NAVPHIBASE Little Creek","branch":"Navy","component":"Navy Active","state":"Virginia","joint":"Joint Expeditionary Base Little Creek - Fort Story"}},{"type":"Feature","geometry":{"type":"Point","coordinates":[-75.14683,40.20064]},"properties":{"name":"NAS JRB Willow Grove","branch":"Navy","component":"Navy Active","state":"Pennsylvania","joint":null}},{"type":"Feature","geometry":{"type":"Point","coordinates":[-76.29465,36.80323]},"properties":{"name":"NSA Norfolk South Gate","branch":"Navy","component":"Navy Active","state":"Virginia","joint":null}},{"type":"Feature","geometry":{"type":"Point","coordinates":[-76.13191,36.69404]},"properties":{"name":"ALF Fentress Chesapeake","branch":"Navy","component":"Navy Active","state":"Virginia","joint":null}},{"type":"Feature","geometry":{"type":"Point","coordinates":[-76.98592,40.2285]},"properties":{"name":"NSA Mechanicsburg","branch":"Navy","component":"Navy Active","state":"Pennsylvania","joint":null}},{"type":"Feature","geometry":{"type":"Point","coordinates":[-72.08517,41.39772]},"properties":{"name":"NAVSUBASE New London","branch":"Navy","component":"Navy Active","state":"Connecticut","joint":null}},{"type":"Feature","geometry":{"type":"Point","coordinates":[-76.2895,36.82542]},"properties":{"name":"NSA Norfolk St Helena Norfolk","branch":"Navy","component":"Navy Active","state":"Virginia","joint":null}},{"type":"Feature","geometry":{"type":"Point","coordinates":[-72.0653,41.37744]},"properties":{"name":"NAVSUBASE New London Nautilus Park 1st Inc","branch":"Navy","component":"Navy Active","state":"Connecticut","joint":null}},{"type":"Feature","geometry":{"type":"Point","coordinates":[-74.14553,40.26606]},"properties":{"name":"NWS Earle NJ","branch":"Navy","component":"Navy Active","state":"New Jersey","joint":null}},{"type":"Feature","geometry":{"type":"Point","coordinates":[-72.07925,41.37741]},"properties":{"name":"NAVSUBASE New London Polaris Park","branch":"Navy","component":"Navy Active","state":"Connecticut","joint":null}},{"type":"Feature","geometry":{"type":"Point","coordinates":[-72.0761,41.36914]},"properties":{"name":"NAVSUBASE New London Conning Towers","branch":"Navy","component":"Navy Active","state":"Connecticut","joint":null}},{"type":"Feature","geometry":{"type":"Point","coordinates":[-73.82478,43.08014]},"properties":{"name":"Naval Support Unit Saratoga Springs","branch":"Navy","component":"Navy Active","state":"New York","joint":null}},{"type":"Feature","geometry":{"type":"Point","coordinates":[-75.09608,40.04012]},"properties":{"name":"NSA Mechanicsburg Det Philadelphia PA","branch":"Navy","component":"Navy Active","state":"Pennsylvania","joint":null}},{"type":"Feature","geometry":{"type":"Point","coordinates":[-72.07531,41.39607]},"properties":{"name":"NAVSUBASE New London Trident Park","branch":"Navy","component":"Navy Active","state":"Connecticut","joint":null}},{"type":"Feature","geometry":{"type":"Point","coordinates":[-72.07436,41.38272]},"properties":{"name":"NAVSUBASE New London Nautilus Park 3rd Inc","branch":"Navy","component":"Navy Active","state":"Connecticut","joint":null}},{"type":"Feature","geometry":{"type":"Point","coordinates":[-69.98614,43.90331]},"properties":{"name":"NAS Brunswick McKeen Street","branch":"Navy","component":"Navy Active","state":"Maine","joint":null}},{"type":"Feature","geometry":{"type":"Point","coordinates":[-69.93181,43.88695]},"properties":{"name":"NAS Brunswick","branch":"Navy","component":"Navy Active","state":"Maine","joint":null}},{"type":"Feature","geometry":{"type":"Point","coordinates":[-71.30646,41.53736]},"properties":{"name":"NS Newport","branch":"Navy","component":"Navy Active","state":"Rhode Island","joint":null}},{"type":"Feature","geometry":{"type":"Point","coordinates":[-71.3448,41.53277]},"properties":{"name":"Gould Island RI","branch":"Navy","component":"Navy Active","state":"Rhode Island","joint":null}},{"type":"Feature","geometry":{"type":"Point","coordinates":[-70.73354,43.08206]},"properties":{"name":"NSY Portsmouth","branch":"Navy","component":"Navy Active","state":"Maine","joint":null}},{"type":"Feature","geometry":{"type":"Point","coordinates":[-67.2856,44.6497]},"properties":{"name":"NAS Portsmouth NCTS Cutler VLF Area","branch":"Navy","component":"Navy Active","state":"Maine","joint":null}},{"type":"Feature","geometry":{"type":"Point","coordinates":[-71.33963,41.47573]},"properties":{"name":"Fort Adams RI","branch":"Navy","component":"Navy Active","state":"Rhode Island","joint":null}},{"type":"Feature","geometry":{"type":"Point","coordinates":[-75.17966,39.89242]},"properties":{"name":"NSA Mechanicsburg Det Philadelphia Annex PNBC","branch":"Navy","component":"Navy Active","state":"Pennsylvania","joint":null}},{"type":"Feature","geometry":{"type":"Point","coordinates":[-76.32611,36.09839]},"properties":{"name":"Harvey Point NC","branch":"Navy","component":"Navy Active","state":"North Carolina","joint":null}},{"type":"Feature","geometry":{"type":"Point","coordinates":[-85.26436,42.3226]},"properties":{"name":"NOSC Battle Creek","branch":"Navy","component":"Navy Reserve","state":"Michigan","joint":null}},{"type":"Feature","geometry":{"type":"Point","coordinates":[-82.94576,39.82047]},"properties":{"name":"NOSC Columbus","branch":"Navy","component":"Navy Reserve","state":"Ohio","joint":null}},{"type":"Feature","geometry":{"type":"Point","coordinates":[-89.86728,35.33386]},"properties":{"name":"NSA Midsouth Memphis","branch":"Navy","component":"Navy Active","state":"Tennessee","joint":null}},{"type":"Feature","geometry":{"type":"Point","coordinates":[-87.86772,42.30001]},"properties":{"name":"GL Forrestal Village","branch":"Navy","component":"Navy Active","state":"Illinois","joint":null}},{"type":"Feature","geometry":{"type":"Point","coordinates":[-87.8545,42.30118]},"properties":{"name":"GL Camp JPJ","branch":"Navy","component":"Navy Active","state":"Illinois","joint":null}},{"type":"Feature","geometry":{"type":"Point","coordinates":[-86.81226,38.84174]},"properties":{"name":"NSA Crane","branch":"Navy","component":"Navy Active","state":"Indiana","joint":null}},{"type":"Feature","geometry":{"type":"Point","coordinates":[-83.55654,41.56959]},"properties":{"name":"NOSC Toledo Oh","branch":"Navy","component":"Navy Reserve","state":"Ohio","joint":null}},{"type":"Feature","geometry":{"type":"Point","coordinates":[-94.54885,39.04191]},"properties":{"name":"NOSC Kansas City","branch":"Navy","component":"Navy Reserve","state":"Missouri","joint":null}},{"type":"Feature","geometry":{"type":"Point","coordinates":[-83.95027,35.93111]},"properties":{"name":"NOSC Knoxville","branch":"Navy","component":"Navy Reserve","state":"Tennessee","joint":null}},{"type":"Feature","geometry":{"type":"Point","coordinates":[-93.22037,44.89709]},"properties":{"name":"NOSC Minneapolis","branch":"Navy","component":"Navy Reserve","state":"Minnesota","joint":null}},{"type":"Feature","geometry":{"type":"Point","coordinates":[-87.83485,42.09169]},"properties":{"name":"Glenview","branch":"Navy","component":"Navy Active","state":"Illinois","joint":null}},{"type":"Feature","geometry":{"type":"Point","coordinates":[-90.14125,35.08861]},"properties":{"name":"NSWC Carderock Div","branch":"Navy","component":"Navy Active","state":"Tennessee","joint":null}},{"type":"Feature","geometry":{"type":"Point","coordinates":[-76.46809,38.98761]},"properties":{"name":"NSA Annapolis","branch":"Navy","component":"Navy Active","state":"Maryland","joint":null}},{"type":"Feature","geometry":{"type":"Point","coordinates":[-76.47115,38.9884]},"properties":{"name":"Naval Academy North Severn","branch":"Navy","component":"Navy Active","state":"Maryland","joint":null}},{"type":"Feature","geometry":{"type":"Point","coordinates":[-77.1925,38.97497]},"properties":{"name":"NSWC Carderock","branch":"Navy","component":"Navy Active","state":"Maryland","joint":null}},{"type":"Feature","geometry":{"type":"Point","coordinates":[-77.09074,39.002]},"properties":{"name":"National Naval Medical Center Bethesda","branch":"Navy","component":"Navy Active","state":"Maryland","joint":null}},{"type":"Feature","geometry":{"type":"Point","coordinates":[-76.99434,38.87333]},"properties":{"name":"NSA Washington","branch":"Navy","component":"Navy Active","state":"District of Columbia","joint":null}},{"type":"Feature","geometry":{"type":"Point","coordinates":[-76.42046,38.2824]},"properties":{"name":"NAS Patuxent River","branch":"Navy","component":"Navy Active","state":"Maryland","joint":null}},{"type":"Feature","geometry":{"type":"Point","coordinates":[-76.42828,38.14473]},"properties":{"name":"Webster Field","branch":"Navy","component":"Navy Active","state":"Maryland","joint":null}},{"type":"Feature","geometry":{"type":"Point","coordinates":[-77.03602,38.32463]},"properties":{"name":"NSA South Potomac","branch":"Navy","component":"Navy Active","state":"Virginia","joint":null}},{"type":"Feature","geometry":{"type":"Point","coordinates":[-77.18426,38.58421]},"properties":{"name":"NSWC Indian Head","branch":"Navy","component":"Navy Active","state":"Maryland","joint":null}},{"type":"Feature","geometry":{"type":"Point","coordinates":[-77.21276,38.54831]},"properties":{"name":"NSA South Potomac Stump Neck Area","branch":"Navy","component":"Navy Active","state":"Maryland","joint":null}},{"type":"Feature","geometry":{"type":"Point","coordinates":[-77.00916,38.85697]},"properties":{"name":"NS Anacostia","branch":"Navy","component":"Navy Active","state":"District of Columbia","joint":"Joint Base Anacostia - Bolling"}},{"type":"Feature","geometry":{"type":"Point","coordinates":[-77.06597,38.92154]},"properties":{"name":"NSA North Potomac","branch":"Navy","component":"Navy Active","state":"District of Columbia","joint":null}},{"type":"Feature","geometry":{"type":"Point","coordinates":[-77.02416,38.82458]},"properties":{"name":"Naval Research Lab","branch":"Navy","component":"Navy Active","state":"District of Columbia","joint":"Joint Base Anacostia - Bolling"}},{"type":"Feature","geometry":{"type":"Point","coordinates":[-77.01909,38.82615]},"properties":{"name":"Bellevue","branch":"Navy","component":"Navy Active","state":"District of Columbia","joint":"Joint Base Anacostia - Bolling"}},{"type":"Feature","geometry":{"type":"Point","coordinates":[-87.29019,30.40289]},"properties":{"name":"Corry Station","branch":"Navy","component":"Navy Active","state":"Florida","joint":null}},{"type":"Feature","geometry":{"type":"Point","coordinates":[-87.41304,30.38324]},"properties":{"name":"OLF Bronson","branch":"Navy","component":"Navy Active","state":"Florida","joint":null}},{"type":"Feature","geometry":{"type":"Point","coordinates":[-90.03086,29.95958]},"properties":{"name":"NSA New Orleans East Bank","branch":"Navy","component":"Navy Active","state":"Louisiana","joint":null}},{"type":"Feature","geometry":{"type":"Point","coordinates":[-90.03417,29.94905]},"properties":{"name":"NSA New Orleans","branch":"Navy","component":"Navy Active","state":"Louisiana","joint":null}},{"type":"Feature","geometry":{"type":"Point","coordinates":[-90.01752,29.83502]},"properties":{"name":"NAS JRB New Orleans","branch":"Navy","component":"Navy Active","state":"Louisiana","joint":null}},{"type":"Feature","geometry":{"type":"Point","coordinates":[-88.83208,32.79595]},"properties":{"name":"OLF Bravo","branch":"Navy","component":"Navy Active","state":"Mississippi","joint":null}},{"type":"Feature","geometry":{"type":"Point","coordinates":[-97.20352,27.82809]},"properties":{"name":"NS Ingleside","branch":"Navy","component":"Navy Active","state":"Texas","joint":null}},{"type":"Feature","geometry":{"type":"Point","coordinates":[-88.52459,30.37124]},"properties":{"name":"CBC Gulfport Lakeside Housing","branch":"Navy","component":"Navy Active","state":"Mississippi","joint":null}},{"type":"Feature","geometry":{"type":"Point","coordinates":[-81.71491,29.11427]},"properties":{"name":"Pinecastle E.W. Range","branch":"Navy","component":"Navy Active","state":"Florida","joint":null}},{"type":"Feature","geometry":{"type":"Point","coordinates":[-98.107,27.52493]},"properties":{"name":"NAS Kingsville King Ranch","branch":"Navy","component":"Navy Active","state":"Texas","joint":null}},{"type":"Feature","geometry":{"type":"Point","coordinates":[-98.04315,27.89552]},"properties":{"name":"ALF Orange","branch":"Navy","component":"Navy Active","state":"Texas","joint":null}},{"type":"Feature","geometry":{"type":"Point","coordinates":[-87.06503,31.04906]},"properties":{"name":"NOLF Brewton","branch":"Navy","component":"Navy Active","state":"Alabama","joint":null}},{"type":"Feature","geometry":{"type":"Point","coordinates":[-87.80939,30.56152]},"properties":{"name":"NOLF Silverhill","branch":"Navy","component":"Navy Active","state":"Alabama","joint":null}},{"type":"Feature","geometry":{"type":"Point","coordinates":[-87.04462,31.41621]},"properties":{"name":"NOLF Evergreen","branch":"Navy","component":"Navy Active","state":"Alabama","joint":null}},{"type":"Feature","geometry":{"type":"Point","coordinates":[-87.63195,30.39098]},"properties":{"name":"Barin Field","branch":"Navy","component":"Navy Active","state":"Alabama","joint":null}},{"type":"Feature","geometry":{"type":"Point","coordinates":[-87.64679,30.50822]},"properties":{"name":"NOLF Summerdale","branch":"Navy","component":"Navy Active","state":"Alabama","joint":null}},{"type":"Feature","geometry":{"type":"Point","coordinates":[-89.12553,30.37877]},"properties":{"name":"CBC Gulfport","branch":"Navy","component":"Navy Active","state":"Mississippi","joint":null}},{"type":"Feature","geometry":{"type":"Point","coordinates":[-97.4327,32.76958]},"properties":{"name":"NAS JRB Fort Worth","branch":"Navy","component":"Navy Active","state":"Texas","joint":null}},{"type":"Feature","geometry":{"type":"Point","coordinates":[-81.42082,30.38331]},"properties":{"name":"NS Mayport","branch":"Navy","component":"Navy Active","state":"Florida","joint":null}},{"type":"Feature","geometry":{"type":"Point","coordinates":[-97.43634,27.70181]},"properties":{"name":"ALF Cabaniss","branch":"Navy","component":"Navy Active","state":"Texas","joint":null}},{"type":"Feature","geometry":{"type":"Point","coordinates":[-81.6287,30.40093]},"properties":{"name":"NS Mayport FISC","branch":"Navy","component":"Navy Active","state":"Florida","joint":null}},{"type":"Feature","geometry":{"type":"Point","coordinates":[-97.81315,27.50029]},"properties":{"name":"NAS Kingsville","branch":"Navy","component":"Navy Active","state":"Texas","joint":null}},{"type":"Feature","geometry":{"type":"Point","coordinates":[-98.72839,28.09589]},"properties":{"name":"Dixie Target Range","branch":"Navy","component":"Navy Active","state":"Texas","joint":null}},{"type":"Feature","geometry":{"type":"Point","coordinates":[-87.13983,30.62532]},"properties":{"name":"NOLF Spencer","branch":"Navy","component":"Navy Active","state":"Florida","joint":null}},{"type":"Feature","geometry":{"type":"Point","coordinates":[-86.9387,30.60925]},"properties":{"name":"NOLF Santa Rosa","branch":"Navy","component":"Navy Active","state":"Florida","joint":null}},{"type":"Feature","geometry":{"type":"Point","coordinates":[-87.5414,30.34376]},"properties":{"name":"NOLF Wolf","branch":"Navy","component":"Navy Active","state":"Alabama","joint":null}},{"type":"Feature","geometry":{"type":"Point","coordinates":[-87.05328,30.6482]},"properties":{"name":"Whiting Pines","branch":"Navy","component":"Navy Active","state":"Florida","joint":null}},{"type":"Feature","geometry":{"type":"Point","coordinates":[-86.95635,30.50638]},"properties":{"name":"NOLF Choctaw","branch":"Navy","component":"Navy Active","state":"Florida","joint":null}},{"type":"Feature","geometry":{"type":"Point","coordinates":[-86.89299,30.42453]},"properties":{"name":"NOLF Holley","branch":"Navy","component":"Navy Active","state":"Florida","joint":null}},{"type":"Feature","geometry":{"type":"Point","coordinates":[-65.63631,18.23301]},"properties":{"name":"Naval Activity Puerto Rico","branch":"Navy","component":"Navy Active","state":"Puerto Rico","joint":null}},{"type":"Feature","geometry":{"type":"Point","coordinates":[-81.57172,28.67298]},"properties":{"name":"NSA Orlando","branch":"Navy","component":"Navy Active","state":"Florida","joint":null}},{"type":"Feature","geometry":{"type":"Point","coordinates":[-81.4241,30.35195]},"properties":{"name":"NS Mayport Ribault Bay Village","branch":"Navy","component":"Navy Active","state":"Florida","joint":null}},{"type":"Feature","geometry":{"type":"Point","coordinates":[-87.01686,30.71045]},"properties":{"name":"NAS Whiting Field Milton","branch":"Navy","component":"Navy Active","state":"Florida","joint":null}},{"type":"Feature","geometry":{"type":"Point","coordinates":[-97.28109,27.69236]},"properties":{"name":"NAS Corpus Christi","branch":"Navy","component":"Navy Active","state":"Texas","joint":null}},{"type":"Feature","geometry":{"type":"Point","coordinates":[-81.5267,30.79627]},"properties":{"name":"NAVSUBASE Kings Bay","branch":"Navy","component":"Navy Active","state":"Georgia","joint":null}},{"type":"Feature","geometry":{"type":"Point","coordinates":[-97.31323,27.63397]},"properties":{"name":"ALF Waldron","branch":"Navy","component":"Navy Active","state":"Texas","joint":null}},{"type":"Feature","geometry":{"type":"Point","coordinates":[-85.75217,30.17132]},"properties":{"name":"NSA Panama City","branch":"Navy","component":"Navy Active","state":"Florida","joint":null}},{"type":"Feature","geometry":{"type":"Point","coordinates":[-88.56893,32.55288]},"properties":{"name":"NAS Meridian","branch":"Navy","component":"Navy Active","state":"Mississippi","joint":null}},{"type":"Feature","geometry":{"type":"Point","coordinates":[-81.79297,24.56068]},"properties":{"name":"NAS Key West Peary Court","branch":"Navy","component":"Navy Active","state":"Florida","joint":null}},{"type":"Feature","geometry":{"type":"Point","coordinates":[-81.77361,24.57915]},"properties":{"name":"NAS Key West Dredgers Key-Sigsbee","branch":"Navy","component":"Navy Active","state":"Florida","joint":null}},{"type":"Feature","geometry":{"type":"Point","coordinates":[-81.79721,24.577]},"properties":{"name":"NAS Key West Fleming Key Magazine","branch":"Navy","component":"Navy Active","state":"Florida","joint":null}},{"type":"Feature","geometry":{"type":"Point","coordinates":[-81.68743,24.57615]},"properties":{"name":"NAS Key West","branch":"Navy","component":"Navy Active","state":"Florida","joint":null}},{"type":"Feature","geometry":{"type":"Point","coordinates":[-81.75121,24.56911]},"properties":{"name":"Naval Hospital Key West","branch":"Navy","component":"Navy Active","state":"Florida","joint":null}},{"type":"Feature","geometry":{"type":"Point","coordinates":[-81.87259,30.35503]},"properties":{"name":"OLF Whitehouse","branch":"Navy","component":"Navy Active","state":"Florida","joint":null}},{"type":"Feature","geometry":{"type":"Point","coordinates":[-81.80416,24.54501]},"properties":{"name":"NAS Key West Truman Annex","branch":"Navy","component":"Navy Active","state":"Florida","joint":null}},{"type":"Feature","geometry":{"type":"Point","coordinates":[-81.92609,30.23474]},"properties":{"name":"NAS Jacksonville - Yellow Water Housing","branch":"Navy","component":"Navy Active","state":"Florida","joint":null}},{"type":"Feature","geometry":{"type":"Point","coordinates":[-81.79072,24.56479]},"properties":{"name":"NAS Key West Trumbo Point Annex","branch":"Navy","component":"Navy Active","state":"Florida","joint":null}},{"type":"Feature","geometry":{"type":"Point","coordinates":[-79.99134,33.25601]},"properties":{"name":"NWS Charleston Short Stay","branch":"Navy","component":"Navy Active","state":"South Carolina","joint":"Joint Base Charleston"}},{"type":"Feature","geometry":{"type":"Point","coordinates":[-79.96408,32.964]},"properties":{"name":"NWS Charleston","branch":"Navy","component":"Navy Active","state":"South Carolina","joint":"Joint Base Charleston"}},{"type":"Feature","geometry":{"type":"Point","coordinates":[-83.40718,33.96466]},"properties":{"name":"NSA Athens","branch":"Navy","component":"Navy Active","state":"Georgia","joint":null}},{"type":"Feature","geometry":{"type":"Point","coordinates":[-84.53644,33.91688]},"properties":{"name":"Dobbins AFB","branch":"Navy","component":"Navy Active","state":"Georgia","joint":null}},{"type":"Feature","geometry":{"type":"Point","coordinates":[-84.52824,33.91219]},"properties":{"name":"NAS Atlanta","branch":"Navy","component":"Navy Active","state":"Georgia","joint":null}},{"type":"Feature","geometry":{"type":"Point","coordinates":[-87.34053,30.47078]},"properties":{"name":"Saufley Field","branch":"Navy","component":"Navy Active","state":"Florida","joint":null}},{"type":"Feature","geometry":{"type":"Point","coordinates":[-81.68777,30.22313]},"properties":{"name":"NAS Jacksonville","branch":"Navy","component":"Navy Active","state":"Florida","joint":null}},{"type":"Feature","geometry":{"type":"Point","coordinates":[-87.30558,30.35205]},"properties":{"name":"NAS Pensacola","branch":"Navy","component":"Navy Active","state":"Florida","joint":null}},{"type":"Feature","geometry":{"type":"Point","coordinates":[-122.60186,48.29468]},"properties":{"name":"NAS Whidbey Island Sea Plane Base","branch":"Navy","component":"Navy Active","state":"Washington","joint":null}},{"type":"Feature","geometry":{"type":"Point","coordinates":[-122.62132,47.69727]},"properties":{"name":"Keyport NUWC","branch":"Navy","component":"Navy Active","state":"Washington","joint":null}},{"type":"Feature","geometry":{"type":"Point","coordinates":[-116.56047,47.97688]},"properties":{"name":"Bayview Idaho","branch":"Navy","component":"Navy Active","state":"Idaho","joint":null}},{"type":"Feature","geometry":{"type":"Point","coordinates":[-122.69091,47.58766]},"properties":{"name":"Jackson Park Hsg","branch":"Navy","component":"Navy Active","state":"Washington","joint":null}},{"type":"Feature","geometry":{"type":"Point","coordinates":[-122.54432,47.56458]},"properties":{"name":"Manchester","branch":"Navy","component":"Navy Active","state":"Washington","joint":null}},{"type":"Feature","geometry":{"type":"Point","coordinates":[-122.22324,47.98874]},"properties":{"name":"NS Everett","branch":"Navy","component":"Navy Active","state":"Washington","joint":null}},{"type":"Feature","geometry":{"type":"Point","coordinates":[-122.63271,48.18976]},"properties":{"name":"OLF Coupeville","branch":"Navy","component":"Navy Active","state":"Washington","joint":null}},{"type":"Feature","geometry":{"type":"Point","coordinates":[-122.6627,48.3398]},"properties":{"name":"NAS Whidbey Island","branch":"Navy","component":"Navy Active","state":"Washington","joint":null}},{"type":"Feature","geometry":{"type":"Point","coordinates":[-122.71051,47.71379]},"properties":{"name":"NAVBASE Kitsap Bremerton","branch":"Navy","component":"Navy Active","state":"Washington","joint":null}},{"type":"Feature","geometry":{"type":"Point","coordinates":[-122.72661,48.05433]},"properties":{"name":"NAVMAG Indian Island","branch":"Navy","component":"Navy Active","state":"Washington","joint":null}},{"type":"Feature","geometry":{"type":"Point","coordinates":[-121.92568,48.20007]},"properties":{"name":"Jim Creek","branch":"Navy","component":"Navy Active","state":"Washington","joint":null}},{"type":"Feature","geometry":{"type":"Point","coordinates":[-122.42191,47.66074]},"properties":{"name":"Fort Lawton, Magnolia","branch":"Navy","component":"Navy Active","state":"Washington","joint":null}},{"type":"Feature","geometry":{"type":"Point","coordinates":[-119.68742,45.72072]},"properties":{"name":"Naval Weapons Systems Training Facility Boardma","branch":"Navy","component":"Navy Active","state":"Oregon","joint":null}},{"type":"Feature","geometry":{"type":"Point","coordinates":[-157.90659,21.36809]},"properties":{"name":"Red Hill","branch":"Navy","component":"Navy Active","state":"Hawaii","joint":"Joint Base Pearl Harbor - Hickam"}},{"type":"Feature","geometry":{"type":"Point","coordinates":[-158.02044,21.41202]},"properties":{"name":"Waikele","branch":"Navy","component":"Navy Active","state":"Hawaii","joint":"Joint Base Pearl Harbor - Hickam"}},{"type":"Feature","geometry":{"type":"Point","coordinates":[-157.93981,21.37755]},"properties":{"name":"Aiea","branch":"Navy","component":"Navy Active","state":"Hawaii","joint":"Joint Base Pearl Harbor - Hickam"}},{"type":"Feature","geometry":{"type":"Point","coordinates":[-157.9779,21.40226]},"properties":{"name":"Manana Housing/Pw Area","branch":"Navy","component":"Navy Active","state":"Hawaii","joint":"Joint Base Pearl Harbor - Hickam"}},{"type":"Feature","geometry":{"type":"Point","coordinates":[-157.97273,21.38227]},"properties":{"name":"Pearl City","branch":"Navy","component":"Navy Active","state":"Hawaii","joint":"Joint Base Pearl Harbor - Hickam"}},{"type":"Feature","geometry":{"type":"Point","coordinates":[-158.15261,21.42752]},"properties":{"name":"Waianae","branch":"Navy","component":"Navy Active","state":"Hawaii","joint":"Joint Base Pearl Harbor - Hickam"}},{"type":"Feature","geometry":{"type":"Point","coordinates":[-158.00762,21.52089]},"properties":{"name":"Wahiawa","branch":"Navy","component":"Navy Active","state":"Hawaii","joint":"Joint Base Pearl Harbor - Hickam"}},{"type":"Feature","geometry":{"type":"Point","coordinates":[-157.98854,21.36221]},"properties":{"name":"Waipahu","branch":"Navy","component":"Navy Active","state":"Hawaii","joint":"Joint Base Pearl Harbor - Hickam"}},{"type":"Feature","geometry":{"type":"Point","coordinates":[-157.94706,21.35294]},"properties":{"name":"NS Pearl Harbor","branch":"Navy","component":"Navy Active","state":"Hawaii","joint":"Joint Base Pearl Harbor - Hickam"}},{"type":"Feature","geometry":{"type":"Point","coordinates":[-157.91798,21.34405]},"properties":{"name":"Honolulu","branch":"Navy","component":"Navy Active","state":"Hawaii","joint":"Joint Base Pearl Harbor - Hickam"}},{"type":"Feature","geometry":{"type":"Point","coordinates":[-158.05242,21.4774]},"properties":{"name":"Kunia","branch":"Navy","component":"Navy Active","state":"Hawaii","joint":"Joint Base Pearl Harbor - Hickam"}},{"type":"Feature","geometry":{"type":"Point","coordinates":[-159.72638,22.13056]},"properties":{"name":"Makaha Ridge","branch":"Navy","component":"Navy Active","state":"Hawaii","joint":null}},{"type":"Feature","geometry":{"type":"Point","coordinates":[-159.7563,22.03841]},"properties":{"name":"Kamokala Ridge","branch":"Navy","component":"Navy Active","state":"Hawaii","joint":null}},{"type":"Feature","geometry":{"type":"Point","coordinates":[-159.77444,22.03169]},"properties":{"name":"PACMISRANFAC Hawaiian Area","branch":"Navy","component":"Navy Active","state":"Hawaii","joint":null}},{"type":"Feature","geometry":{"type":"Point","coordinates":[-77.4317,39.43962]},"properties":{"name":"Fort Detrick","branch":"Army","component":"Army Active","state":"Maryland","joint":null}},{"type":"Feature","geometry":{"type":"Point","coordinates":[-74.0287,40.60857]},"properties":{"name":"Fort Hamilton","branch":"Army","component":"Army Active","state":"New York","joint":null}},{"type":"Feature","geometry":{"type":"Point","coordinates":[-74.05942,40.30576]},"properties":{"name":"Fort Monmouth Main Post","branch":"Army","component":"Army Active","state":"New Jersey","joint":null}},{"type":"Feature","geometry":{"type":"Point","coordinates":[-77.01761,38.86834]},"properties":{"name":"Fort Lesley J McNair","branch":"Army","component":"Army Active","state":"District of Columbia","joint":"Joint Base Myer - Henderson Hall"}},{"type":"Feature","geometry":{"type":"Point","coordinates":[-76.3054,37.01255]},"properties":{"name":"Fort Monroe","branch":"Army","component":"Army Active","state":"Virginia","joint":null}},{"type":"Feature","geometry":{"type":"Point","coordinates":[-77.07839,38.88171]},"properties":{"name":"Fort Myer","branch":"Army","component":"Army Active","state":"Virginia","joint":"Joint Base Myer - Henderson Hall"}},{"type":"Feature","geometry":{"type":"Point","coordinates":[-104.82684,38.55865]},"properties":{"name":"Fort Carson","branch":"Army","component":"Army Active","state":"Colorado","joint":null}},{"type":"Feature","geometry":{"type":"Point","coordinates":[-90.67647,44.03446]},"properties":{"name":"Fort McCoy","branch":"Army","component":"Army Reserve","state":"Wisconsin","joint":null}},{"type":"Feature","geometry":{"type":"Point","coordinates":[-82.23724,33.35678]},"properties":{"name":"Fort Gordon","branch":"Army","component":"Army Active","state":"Georgia","joint":null}},{"type":"Feature","geometry":{"type":"Point","coordinates":[-97.74201,31.21589]},"properties":{"name":"Fort Hood","branch":"Army","component":"Army Active","state":"Texas","joint":null}},{"type":"Feature","geometry":{"type":"Point","coordinates":[-121.2541,35.95512]},"properties":{"name":"Fort Hunter Liggett","branch":"Army","component":"Army Reserve","state":"California","joint":null}},{"type":"Feature","geometry":{"type":"Point","coordinates":[-121.81137,36.63751]},"properties":{"name":"Fort Ord","branch":"Army","component":"Army Active","state":"California","joint":null}},{"type":"Feature","geometry":{"type":"Point","coordinates":[-157.83472,21.28085]},"properties":{"name":"Fort De Russy","branch":"Army","component":"Army Active","state":"Hawaii","joint":null}},{"type":"Feature","geometry":{"type":"Point","coordinates":[-76.21952,39.3903]},"properties":{"name":"Aberdeen Proving Ground","branch":"Army","component":"Army Active","state":"Maryland","joint":null}},{"type":"Feature","geometry":{"type":"Point","coordinates":[-77.15633,38.70879]},"properties":{"name":"Fort Belvoir","branch":"Army","component":"Army Active","state":"Virginia","joint":null}},{"type":"Feature","geometry":{"type":"Point","coordinates":[-84.80092,32.39966]},"properties":{"name":"Fort Benning GA","branch":"Army","component":"Army Active","state":"Georgia","joint":null}},{"type":"Feature","geometry":{"type":"Point","coordinates":[-84.95616,32.28528]},"properties":{"name":"Fort Benning AL","branch":"Army","component":"Army Active","state":"Alabama","joint":null}},{"type":"Feature","geometry":{"type":"Point","coordinates":[-106.0753,32.26237]},"properties":{"name":"Fort Bliss","branch":"Army","component":"Army Active","state":"Texas","joint":null}},{"type":"Feature","geometry":{"type":"Point","coordinates":[-79.14585,35.13563]},"properties":{"name":"Fort Bragg","branch":"Army","component":"Army Active","state":"North Carolina","joint":null}},{"type":"Feature","geometry":{"type":"Point","coordinates":[-66.12219,18.41257]},"properties":{"name":"Fort Buchanan","branch":"Army","component":"Army Reserve","state":"Puerto Rico","joint":null}},{"type":"Feature","geometry":{"type":"Point","coordinates":[-75.59102,44.12502]},"properties":{"name":"Fort Drum","branch":"Army","component":"Army Active","state":"New York","joint":null}},{"type":"Feature","geometry":{"type":"Point","coordinates":[-110.32906,31.5677]},"properties":{"name":"Fort Huachuca","branch":"Army","component":"Army Active","state":"Arizona","joint":null}},{"type":"Feature","geometry":{"type":"Point","coordinates":[-80.82666,34.03955]},"properties":{"name":"Fort Jackson","branch":"Army","component":"Army Active","state":"South Carolina","joint":null}},{"type":"Feature","geometry":{"type":"Point","coordinates":[-85.88274,37.90671]},"properties":{"name":"Fort Knox","branch":"Army","component":"Army Active","state":"Kentucky","joint":null}},{"type":"Feature","geometry":{"type":"Point","coordinates":[-94.91925,39.36388]},"properties":{"name":"Fort Leavenworth","branch":"Army","component":"Army Active","state":"Kansas","joint":null}},{"type":"Feature","geometry":{"type":"Point","coordinates":[-77.3345,37.24946]},"properties":{"name":"Fort Lee","branch":"Army","component":"Army Active","state":"Virginia","joint":null}},{"type":"Feature","geometry":{"type":"Point","coordinates":[-92.15748,37.70551]},"properties":{"name":"Fort Leonard Wood","branch":"Army","component":"Army Active","state":"Missouri","joint":null}},{"type":"Feature","geometry":{"type":"Point","coordinates":[-122.58517,47.03267]},"properties":{"name":"Fort Lewis","branch":"Army","component":"Army Active","state":"Washington","joint":"Joint Base Lewis - McChord"}},{"type":"Feature","geometry":{"type":"Point","coordinates":[-84.43511,33.70694]},"properties":{"name":"Fort McPherson","branch":"Army","component":"Army Active","state":"Georgia","joint":null}},{"type":"Feature","geometry":{"type":"Point","coordinates":[-84.32907,33.62224]},"properties":{"name":"Fort Gillem","branch":"Army","component":"Army Active","state":"Georgia","joint":null}},{"type":"Feature","geometry":{"type":"Point","coordinates":[-76.74445,39.10677]},"properties":{"name":"Fort George G Meade","branch":"Army","component":"Army Active","state":"Maryland","joint":null}},{"type":"Feature","geometry":{"type":"Point","coordinates":[-77.16803,40.20722]},"properties":{"name":"Carlisle Barracks","branch":"Army","component":"Army Active","state":"Pennsylvania","joint":null}},{"type":"Feature","geometry":{"type":"Point","coordinates":[-80.16065,40.39802]},"properties":{"name":"Charles E Kelly Support Facility","branch":"Army","component":"Army Active","state":"Pennsylvania","joint":"Joint Base McGuire-Dix-Lakehurst"}},{"type":"Feature","geometry":{"type":"Point","coordinates":[-77.70287,40.02096]},"properties":{"name":"Letterkenny Army Depot","branch":"Army","component":"Army Active","state":"Pennsylvania","joint":null}},{"type":"Feature","geometry":{"type":"Point","coordinates":[-80.54378,37.18684]},"properties":{"name":"Radford AAP","branch":"Army","component":"Army Active","state":"Virginia","joint":null}},{"type":"Feature","geometry":{"type":"Point","coordinates":[-75.66623,41.40431]},"properties":{"name":"Scranton AAP","branch":"Army","component":"Army Active","state":"Pennsylvania","joint":null}},{"type":"Feature","geometry":{"type":"Point","coordinates":[-76.96092,39.03226]},"properties":{"name":"USA Adelphi Laboratory Ctr","branch":"Army","component":"Army Active","state":"Maryland","joint":null}},{"type":"Feature","geometry":{"type":"Point","coordinates":[-77.02994,38.9742]},"properties":{"name":"Walter Reed AMC Main Post","branch":"Army","component":"Army Active","state":"District of Columbia","joint":null}},{"type":"Feature","geometry":{"type":"Point","coordinates":[-73.70787,42.71891]},"properties":{"name":"Watervliet Arsenal","branch":"Army","component":"Army Active","state":"New York","joint":null}},{"type":"Feature","geometry":{"type":"Point","coordinates":[-112.34281,40.29678]},"properties":{"name":"Deseret Chemical Depot","branch":"Army","component":"Army Active","state":"Utah","joint":null}},{"type":"Feature","geometry":{"type":"Point","coordinates":[-91.24331,40.79246]},"properties":{"name":"Iowa AAP","branch":"Army","component":"Army Active","state":"Iowa","joint":null}},{"type":"Feature","geometry":{"type":"Point","coordinates":[-95.1814,37.28716]},"properties":{"name":"Kansas AAP","branch":"Army","component":"Army Active","state":"Kansas","joint":null}},{"type":"Feature","geometry":{"type":"Point","coordinates":[-94.2504,39.09788]},"properties":{"name":"Lake City AAP","branch":"Army","component":"Army Active","state":"Missouri","joint":null}},{"type":"Feature","geometry":{"type":"Point","coordinates":[-84.13489,40.70122]},"properties":{"name":"US Army Joint Sys Mfg Ctr Lima","branch":"Army","component":"Army Active","state":"Ohio","joint":null}},{"type":"Feature","geometry":{"type":"Point","coordinates":[-87.44833,39.85016]},"properties":{"name":"Newport Chem Depot","branch":"Army","component":"Army Active","state":"Indiana","joint":null}},{"type":"Feature","geometry":{"type":"Point","coordinates":[-103.91747,37.49774]},"properties":{"name":"Pinon Canyon","branch":"Army","component":"Army Active","state":"Colorado","joint":null}},{"type":"Feature","geometry":{"type":"Point","coordinates":[-104.33219,38.3174]},"properties":{"name":"Pueblo Chemical Depot","branch":"Army","component":"Army Active","state":"Colorado","joint":null}},{"type":"Feature","geometry":{"type":"Point","coordinates":[-81.15351,32.00913]},"properties":{"name":"Hunter Army Airfield","branch":"Army","component":"Army Active","state":"Georgia","joint":null}},{"type":"Feature","geometry":{"type":"Point","coordinates":[-82.64777,36.52359]},"properties":{"name":"Holston AAP","branch":"Army","component":"Army Active","state":"Tennessee","joint":null}},{"type":"Feature","geometry":{"type":"Point","coordinates":[-88.70576,35.87403]},"properties":{"name":"Milan AAP","branch":"Army","component":"Army Active","state":"Tennessee","joint":null}},{"type":"Feature","geometry":{"type":"Point","coordinates":[-112.41528,40.52616]},"properties":{"name":"Tooele Army Depot","branch":"Army","component":"Army Active","state":"Utah","joint":null}},{"type":"Feature","geometry":{"type":"Point","coordinates":[-119.44014,45.8379]},"properties":{"name":"Umatilla Chem Depot","branch":"Army","component":"Army Active","state":"Oregon","joint":null}},{"type":"Feature","geometry":{"type":"Point","coordinates":[-120.16496,46.74432]},"properties":{"name":"Yakima Training Center","branch":"Army","component":"Army Active","state":"Washington","joint":"Joint Base Lewis - McChord"}},{"type":"Feature","geometry":{"type":"Point","coordinates":[-149.63952,61.2632]},"properties":{"name":"Fort Richardson","branch":"Army","component":"Army Active","state":"Alaska","joint":"Joint Base Elmendorf - Richardson"}},{"type":"Feature","geometry":{"type":"Point","coordinates":[-157.88279,21.34613]},"properties":{"name":"Fort Shafter","branch":"Army","component":"Army Active","state":"Hawaii","joint":null}},{"type":"Feature","geometry":{"type":"Point","coordinates":[-147.40233,64.58528]},"properties":{"name":"Fort Wainwright","branch":"Army","component":"Army Active","state":"Alaska","joint":null}},{"type":"Feature","geometry":{"type":"Point","coordinates":[-155.61375,19.68844]},"properties":{"name":"Pohakuloa Training Area","branch":"Army","component":"Army Active","state":"Hawaii","joint":null}},{"type":"Feature","geometry":{"type":"Point","coordinates":[-158.0965,21.49642]},"properties":{"name":"Schofield Bks Military Reservation","branch":"Army","component":"Army Active","state":"Hawaii","joint":null}},{"type":"Feature","geometry":{"type":"Point","coordinates":[-158.03511,21.47248]},"properties":{"name":"Wheeler Army Airfield","branch":"Army","component":"Army Active","state":"Hawaii","joint":null}},{"type":"Feature","geometry":{"type":"Point","coordinates":[-157.88865,21.36107]},"properties":{"name":"Tripler AMC","branch":"Army","component":"Army Active","state":"Hawaii","joint":null}},{"type":"Feature","geometry":{"type":"Point","coordinates":[-89.6038,30.39936]},"properties":{"name":"Mississippi AAP","branch":"Army","component":"Army Active","state":"Mississippi","joint":null}},{"type":"Feature","geometry":{"type":"Point","coordinates":[-94.25205,33.43604]},"properties":{"name":"Lone Star AAP","branch":"Army","component":"Army Active","state":"Texas","joint":null}},{"type":"Feature","geometry":{"type":"Point","coordinates":[-95.93942,34.82204]},"properties":{"name":"McAlester AAP","branch":"Army","component":"Army Active","state":"Oklahoma","joint":null}},{"type":"Feature","geometry":{"type":"Point","coordinates":[-92.08469,34.32596]},"properties":{"name":"Pine Bluff Arsenal","branch":"Army","component":"Army Active","state":"Arkansas","joint":null}},{"type":"Feature","geometry":{"type":"Point","coordinates":[-94.33873,33.42626]},"properties":{"name":"Red River Army Depot","branch":"Army","component":"Army Active","state":"Texas","joint":null}},{"type":"Feature","geometry":{"type":"Point","coordinates":[-120.91433,37.71702]},"properties":{"name":"Riverbank AAP","branch":"Army","component":"Army Active","state":"California","joint":null}},{"type":"Feature","geometry":{"type":"Point","coordinates":[-158.02046,21.53676]},"properties":{"name":"Helemano Military Reservation","branch":"Army","component":"Army Active","state":"Hawaii","joint":null}},{"type":"Feature","geometry":{"type":"Point","coordinates":[-158.21205,21.53532]},"properties":{"name":"Makua Mil Reserve","branch":"Army","component":"Army Active","state":"Hawaii","joint":null}},{"type":"Feature","geometry":{"type":"Point","coordinates":[-157.99068,21.65675]},"properties":{"name":"Kahuku Training Area","branch":"Army","component":"Army Active","state":"Hawaii","joint":null}},{"type":"Feature","geometry":{"type":"Point","coordinates":[-157.91193,21.35984]},"properties":{"name":"Aliamanu Military Reservation","branch":"Army","component":"Army Active","state":"Hawaii","joint":null}},{"type":"Feature","geometry":{"type":"Point","coordinates":[-158.19052,21.4465]},"properties":{"name":"Waianae-Kai Military Reservation","branch":"Army","component":"Army Active","state":"Hawaii","joint":null}},{"type":"Feature","geometry":{"type":"Point","coordinates":[-158.0539,21.47511]},"properties":{"name":"USA Field Station Kunia","branch":"Army","component":"Army Active","state":"Hawaii","joint":null}},{"type":"Feature","geometry":{"type":"Point","coordinates":[-157.99694,21.45246]},"properties":{"name":"Kipapa Ammo Storage Site","branch":"Army","component":"Army Active","state":"Hawaii","joint":null}},{"type":"Feature","geometry":{"type":"Point","coordinates":[-76.84025,40.20893]},"properties":{"name":"Defense Distrib Depot Susq","branch":"Army","component":"Army Active","state":"Pennsylvania","joint":null}},{"type":"Feature","geometry":{"type":"Point","coordinates":[-77.09273,38.42203]},"properties":{"name":"Blossom Point Research Facility","branch":"Army","component":"Army Active","state":"Maryland","joint":null}},{"type":"Feature","geometry":{"type":"Point","coordinates":[-85.9705,33.65734]},"properties":{"name":"Anniston Army Depot","branch":"Army","component":"Army Active","state":"Alabama","joint":null}},{"type":"Feature","geometry":{"type":"Point","coordinates":[-84.21767,37.69919]},"properties":{"name":"Blue Grass Army Depot","branch":"Army","component":"Army Active","state":"Kentucky","joint":null}},{"type":"Feature","geometry":{"type":"Point","coordinates":[-83.04158,42.49733]},"properties":{"name":"Detroit Arsenal","branch":"Army","component":"Army Active","state":"Michigan","joint":null}},{"type":"Feature","geometry":{"type":"Point","coordinates":[-113.28405,40.15459]},"properties":{"name":"Dugway Proving Ground","branch":"Army","component":"Army Active","state":"Utah","joint":null}},{"type":"Feature","geometry":{"type":"Point","coordinates":[-77.27556,38.11725]},"properties":{"name":"Fort A P Hill","branch":"Army","component":"Army Active","state":"Virginia","joint":null}},{"type":"Feature","geometry":{"type":"Point","coordinates":[-121.89666,37.72955]},"properties":{"name":"Parks Reserve Forces Training Area","branch":"Army","component":"Army Reserve","state":"California","joint":null}},{"type":"Feature","geometry":{"type":"Point","coordinates":[-79.48171,35.03028]},"properties":{"name":"Camp Mackall","branch":"Army","component":"Army Active","state":"North Carolina","joint":null}},{"type":"Feature","geometry":{"type":"Point","coordinates":[-87.62402,36.62155]},"properties":{"name":"Fort Campbell KY","branch":"Army","component":"Army Active","state":"Kentucky","joint":null}},{"type":"Feature","geometry":{"type":"Point","coordinates":[-93.1129,31.12824]},"properties":{"name":"Fort Polk","branch":"Army","component":"Army Active","state":"Louisiana","joint":null}},{"type":"Feature","geometry":{"type":"Point","coordinates":[-96.82001,39.18626]},"properties":{"name":"Fort Riley","branch":"Army","component":"Army Active","state":"Kansas","joint":null}},{"type":"Feature","geometry":{"type":"Point","coordinates":[-98.56179,29.69124]},"properties":{"name":"Camp Bullis","branch":"Army","component":"Army Active","state":"Texas","joint":"Joint Base San Antonio"}},{"type":"Feature","geometry":{"type":"Point","coordinates":[-98.43787,29.46023]},"properties":{"name":"Fort Sam Houston","branch":"Army","component":"Army Active","state":"Texas","joint":"Joint Base San Antonio"}},{"type":"Feature","geometry":{"type":"Point","coordinates":[-98.48285,34.68251]},"properties":{"name":"Fort Sill","branch":"Army","component":"Army Active","state":"Oklahoma","joint":null}},{"type":"Feature","geometry":{"type":"Point","coordinates":[-81.61656,31.99349]},"properties":{"name":"Fort Stewart","branch":"Army","component":"Army Active","state":"Georgia","joint":null}},{"type":"Feature","geometry":{"type":"Point","coordinates":[-118.65539,38.54232]},"properties":{"name":"Hawthorne Army Depot","branch":"Army","component":"Army Active","state":"Nevada","joint":null}},{"type":"Feature","geometry":{"type":"Point","coordinates":[-77.97168,34.0135]},"properties":{"name":"Military Ocean Tml Sunny Point","branch":"Army","component":"Army Active","state":"North Carolina","joint":null}},{"type":"Feature","geometry":{"type":"Point","coordinates":[-116.63311,35.37445]},"properties":{"name":"NTC and Fort Irwin","branch":"Army","component":"Army Active","state":"California","joint":null}},{"type":"Feature","geometry":{"type":"Point","coordinates":[-74.5446,40.95326]},"properties":{"name":"Picatinny Arsenal","branch":"Army","component":"Army Active","state":"New Jersey","joint":null}},{"type":"Feature","geometry":{"type":"Point","coordinates":[-121.91273,36.60209]},"properties":{"name":"Presidio Of Monterey","branch":"Army","component":"Army Active","state":"California","joint":null}},{"type":"Feature","geometry":{"type":"Point","coordinates":[-86.65704,34.63222]},"properties":{"name":"Redstone Arsenal","branch":"Army","component":"Army Active","state":"Alabama","joint":null}},{"type":"Feature","geometry":{"type":"Point","coordinates":[-90.54123,41.51671]},"properties":{"name":"Rock Island Arsenal","branch":"Army","component":"Army Active","state":"Illinois","joint":null}},{"type":"Feature","geometry":{"type":"Point","coordinates":[-120.12942,40.20856]},"properties":{"name":"Sierra Army Depot","branch":"Army","component":"Army Active","state":"California","joint":null}},{"type":"Feature","geometry":{"type":"Point","coordinates":[-75.43026,41.19854]},"properties":{"name":"Tobyhanna Army Depot","branch":"Army","component":"Army Active","state":"Pennsylvania","joint":null}},{"type":"Feature","geometry":{"type":"Point","coordinates":[-74.02386,41.36203]},"properties":{"name":"West Point Mil Reservation","branch":"Army","component":"Army Active","state":"New York","joint":null}},{"type":"Feature","geometry":{"type":"Point","coordinates":[-106.42526,33.13656]},"properties":{"name":"White Sands Missile Range","branch":"Army","component":"Army Active","state":"New Mexico","joint":null}},{"type":"Feature","geometry":{"type":"Point","coordinates":[-114.21331,33.10429]},"properties":{"name":"Yuma Proving Ground","branch":"Army","component":"Army Active","state":"Arizona","joint":null}},{"type":"Feature","geometry":{"type":"Point","coordinates":[-76.01753,36.92242]},"properties":{"name":"Fort Story","branch":"Navy","component":"Navy Active","state":"Virginia","joint":"Joint Expeditionary Base Little Creek - Fort Story"}},{"type":"Feature","geometry":{"type":"Point","coordinates":[-74.09403,41.49215]},"properties":{"name":"Stewart Annex","branch":"Army","component":"Army Active","state":"New York","joint":null}},{"type":"Feature","geometry":{"type":"Point","coordinates":[-121.26899,37.84051]},"properties":{"name":"Defense Distribution Region West Sharpe Site","branch":"Army","component":"Army Active","state":"California","joint":null}},{"type":"Feature","geometry":{"type":"Point","coordinates":[-121.39269,37.71551]},"properties":{"name":"Defense Distribution Region West Tracy","branch":"Army","component":"Army Active","state":"California","joint":null}},{"type":"Feature","geometry":{"type":"Point","coordinates":[-77.44745,37.41842]},"properties":{"name":"Defense General Supply Center","branch":"Army","component":"Army Active","state":"Virginia","joint":null}},{"type":"Feature","geometry":{"type":"Point","coordinates":[-146.29903,63.91837]},"properties":{"name":"Donnelly Training Area","branch":"Army","component":"Army Active","state":"Alaska","joint":null}},{"type":"Feature","geometry":{"type":"Point","coordinates":[-145.81069,63.51005]},"properties":{"name":"Black Rapids Training Area","branch":"Army","component":"Army Active","state":"Alaska","joint":null}},{"type":"Feature","geometry":{"type":"Point","coordinates":[-94.13612,32.67016]},"properties":{"name":"Longhorn AAP","branch":"Army","component":"Army Active","state":"Texas","joint":null}},{"type":"Feature","geometry":{"type":"Point","coordinates":[-82.89922,39.97944]},"properties":{"name":"Defense Supply Center Columbus","branch":"Army","component":"Army Active","state":"Ohio","joint":null}},{"type":"Feature","geometry":{"type":"Point","coordinates":[-84.17978,34.71223]},"properties":{"name":"Camp Frank D. Merrill, Dahlonega","branch":"Army","component":"Army Active","state":"Georgia","joint":null}},{"type":"Feature","geometry":{"type":"Point","coordinates":[-155.71974,19.96947]},"properties":{"name":"Pupukea Paalaa Uka Mil Road","branch":"Army","component":"Army Active","state":"Hawaii","joint":null}},{"type":"Feature","geometry":{"type":"Point","coordinates":[-145.15094,63.78555]},"properties":{"name":"Gerstle River Arctic Test Site","branch":"Army","component":"Army Active","state":"Alaska","joint":null}},{"type":"Feature","geometry":{"type":"Point","coordinates":[-98.49654,40.93051]},"properties":{"name":"Cornhusker AAP","branch":"Army","component":"Army Active","state":"Nebraska","joint":null}},{"type":"Feature","geometry":{"type":"Point","coordinates":[-110.09717,38.95806]},"properties":{"name":"Green River Test Complex","branch":"Army","component":"Army Active","state":"Utah","joint":null}},{"type":"Feature","geometry":{"type":"Point","coordinates":[-70.54482,41.70016]},"properties":{"name":"MTA Camp Edwards","branch":"Army","component":"Army Guard","state":"Massachusetts","joint":null}},{"type":"Feature","geometry":{"type":"Point","coordinates":[-71.49939,41.61648]},"properties":{"name":"NG Camp Fogarty TS","branch":"Army","component":"Army Guard","state":"Rhode Island","joint":null}},{"type":"Feature","geometry":{"type":"Point","coordinates":[-81.08479,41.19718]},"properties":{"name":"Ravenna Training and Log Site","branch":"Army","component":"Army Guard","state":"Ohio","joint":null}},{"type":"Feature","geometry":{"type":"Point","coordinates":[-85.0595,34.93028]},"properties":{"name":"VTS Catoosa","branch":"Army","component":"Army Guard","state":"Georgia","joint":null}},{"type":"Feature","geometry":{"type":"Point","coordinates":[-89.68626,33.71035]},"properties":{"name":"CTA Camp McCain","branch":"Army","component":"Army Guard","state":"Mississippi","joint":null}},{"type":"Feature","geometry":{"type":"Point","coordinates":[-89.00691,31.08989]},"properties":{"name":"MTA Camp Shelby","branch":"Army","component":"Army Guard","state":"Mississippi","joint":null}},{"type":"Feature","geometry":{"type":"Point","coordinates":[-93.78244,41.81232]},"properties":{"name":"Camp Dodge Johnston TS","branch":"Army","component":"Army Guard","state":"Iowa","joint":null}},{"type":"Feature","geometry":{"type":"Point","coordinates":[-97.29611,30.26169]},"properties":{"name":"Camp Swift","branch":"Army","component":"Army Guard","state":"Texas","joint":null}},{"type":"Feature","geometry":{"type":"Point","coordinates":[-66.28416,18.02851]},"properties":{"name":"MTA Camp Santiago Rq 577","branch":"Army","component":"Army Guard","state":"Puerto Rico","joint":null}},{"type":"Feature","geometry":{"type":"Point","coordinates":[-94.36462,36.79411]},"properties":{"name":"MTA Camp Crowder Neosho","branch":"Army","component":"Army Guard","state":"Missouri","joint":null}},{"type":"Feature","geometry":{"type":"Point","coordinates":[-86.04665,39.29501]},"properties":{"name":"Camp Atterbury","branch":"Army","component":"Army Guard","state":"Indiana","joint":null}},{"type":"Feature","geometry":{"type":"Point","coordinates":[-85.31853,42.29981]},"properties":{"name":"CTC Fort Custer Trng Center","branch":"Army","component":"Army Guard","state":"Michigan","joint":null}},{"type":"Feature","geometry":{"type":"Point","coordinates":[-112.14631,46.62684]},"properties":{"name":"MTA Fort Wm Henry Harrison","branch":"Army","component":"Army Guard","state":"Montana","joint":null}},{"type":"Feature","geometry":{"type":"Point","coordinates":[-111.57938,46.27421]},"properties":{"name":"NG MTA Limestone Hills","branch":"Army","component":"Army Guard","state":"Montana","joint":null}},{"type":"Feature","geometry":{"type":"Point","coordinates":[-95.16721,35.70161]},"properties":{"name":"Camp Gruber","branch":"Army","component":"Army Guard","state":"Oklahoma","joint":null}},{"type":"Feature","geometry":{"type":"Point","coordinates":[-120.77999,35.78202]},"properties":{"name":"MTC-H Camp Roberts","branch":"Army","component":"Army Guard","state":"California","joint":null}},{"type":"Feature","geometry":{"type":"Point","coordinates":[-112.01901,40.4269]},"properties":{"name":"MTA-L Camp Williams","branch":"Army","component":"Army Guard","state":"Utah","joint":null}},{"type":"Feature","geometry":{"type":"Point","coordinates":[-72.8979,44.47147]},"properties":{"name":"NG TS Ethan Allen Range","branch":"Army","component":"Army Guard","state":"Vermont","joint":null}},{"type":"Feature","geometry":{"type":"Point","coordinates":[-77.90976,37.03778]},"properties":{"name":"Fort Pickett, ARNG MTC","branch":"Army","component":"Army Guard","state":"Virginia","joint":null}},{"type":"Feature","geometry":{"type":"Point","coordinates":[-76.62903,40.43492]},"properties":{"name":"Fort Indiantown Gap","branch":"Army","component":"Army Guard","state":"Pennsylvania","joint":null}},{"type":"Feature","geometry":{"type":"Point","coordinates":[-85.94884,33.71787]},"properties":{"name":"Fort McClellan ARNG Training Center","branch":"Army","component":"Army Guard","state":"Alabama","joint":null}},{"type":"Feature","geometry":{"type":"Point","coordinates":[-116.77624,37.80019]},"properties":{"name":"Tonopah Auxiliary Airfield Annex","branch":"Air Force","component":"AF Active","state":"Nevada","joint":null}},{"type":"Feature","geometry":{"type":"Point","coordinates":[-116.76829,37.88473]},"properties":{"name":"Tonopah Auxiliary Airfield Annex #2","branch":"Air Force","component":"AF Active","state":"Nevada","joint":null}},{"type":"Feature","geometry":{"type":"Point","coordinates":[-116.17198,37.30565]},"properties":{"name":"Nellis Air Force Range","branch":"Air Force","component":"AF Active","state":"Nevada","joint":null}},{"type":"Feature","geometry":{"type":"Point","coordinates":[-81.27833,27.64718]},"properties":{"name":"Avon Park AF Range","branch":"Air Force","component":"AF Active","state":"Florida","joint":null}},{"type":"Feature","geometry":{"type":"Point","coordinates":[-103.19522,44.04259]},"properties":{"name":"Dakota Ridge FH Annex","branch":"Air Force","component":"AF Active","state":"South Dakota","joint":null}},{"type":"Feature","geometry":{"type":"Point","coordinates":[-121.39516,39.12122]},"properties":{"name":"Beale AFB","branch":"Air Force","component":"AF Active","state":"California","joint":null}},{"type":"Feature","geometry":{"type":"Point","coordinates":[-110.8491,32.16021]},"properties":{"name":"Davis-Monthan AFB","branch":"Air Force","component":"AF Active","state":"Arizona","joint":null}},{"type":"Feature","geometry":{"type":"Point","coordinates":[-99.83884,32.42217]},"properties":{"name":"Dyess AFB","branch":"Air Force","component":"AF Active","state":"Texas","joint":null}},{"type":"Feature","geometry":{"type":"Point","coordinates":[-103.09252,44.15185]},"properties":{"name":"Ellsworth AFB Site # 1","branch":"Air Force","component":"AF Active","state":"South Dakota","joint":null}},{"type":"Feature","geometry":{"type":"Point","coordinates":[-76.3622,37.08718]},"properties":{"name":"Langley AFB","branch":"Air Force","component":"AF Active","state":"Virginia","joint":"Joint Base Langley - Eustis"}},{"type":"Feature","geometry":{"type":"Point","coordinates":[-115.866,43.04874]},"properties":{"name":"Mountain Home AFB","branch":"Air Force","component":"AF Active","state":"Idaho","joint":null}},{"type":"Feature","geometry":{"type":"Point","coordinates":[-115.67649,36.58727]},"properties":{"name":"Creech AFB","branch":"Air Force","component":"AF Active","state":"Nevada","joint":null}},{"type":"Feature","geometry":{"type":"Point","coordinates":[-95.90849,41.1189]},"properties":{"name":"Offutt AFB","branch":"Air Force","component":"AF Active","state":"Nebraska","joint":null}},{"type":"Feature","geometry":{"type":"Point","coordinates":[-95.95308,41.12471]},"properties":{"name":"Offutt FH Annex","branch":"Air Force","component":"AF Active","state":"Nebraska","joint":null}},{"type":"Feature","geometry":{"type":"Point","coordinates":[-77.91581,33.9818]},"properties":{"name":"Fort Fisher Recreation Site","branch":"Air Force","component":"AF Active","state":"North Carolina","joint":null}},{"type":"Feature","geometry":{"type":"Point","coordinates":[-75.87867,35.71428]},"properties":{"name":"Dare County Range","branch":"Air Force","component":"AF Active","state":"North Carolina","joint":null}},{"type":"Feature","geometry":{"type":"Point","coordinates":[-77.96255,35.3468]},"properties":{"name":"Seymour Johnson AFB","branch":"Air Force","component":"AF Active","state":"North Carolina","joint":null}},{"type":"Feature","geometry":{"type":"Point","coordinates":[-80.47152,33.97321]},"properties":{"name":"Shaw AFB","branch":"Air Force","component":"AF Active","state":"South Carolina","joint":null}},{"type":"Feature","geometry":{"type":"Point","coordinates":[-83.1855,30.96812]},"properties":{"name":"Moody AFB","branch":"Air Force","component":"AF Active","state":"Georgia","joint":null}},{"type":"Feature","geometry":{"type":"Point","coordinates":[-76.42513,37.09785]},"properties":{"name":"Langley FH Annex","branch":"Air Force","component":"AF Active","state":"Virginia","joint":"Joint Base Langley - Eustis"}},{"type":"Feature","geometry":{"type":"Point","coordinates":[-106.1339,32.91863]},"properties":{"name":"Holloman AFB","branch":"Air Force","component":"AF Active","state":"New Mexico","joint":null}},{"type":"Feature","geometry":{"type":"Point","coordinates":[-105.93181,32.76253]},"properties":{"name":"Boles Wells System Annex","branch":"Air Force","component":"AF Active","state":"New Mexico","joint":null}},{"type":"Feature","geometry":{"type":"Point","coordinates":[-115.56382,42.74039]},"properties":{"name":"Saylor Creek Air Force Range","branch":"Air Force","component":"AF Active","state":"Idaho","joint":null}},{"type":"Feature","geometry":{"type":"Point","coordinates":[-115.13737,36.23831]},"properties":{"name":"Nellis System Annex","branch":"Air Force","component":"AF Active","state":"Nevada","joint":null}},{"type":"Feature","geometry":{"type":"Point","coordinates":[-114.99266,36.24391]},"properties":{"name":"Nellis AFB","branch":"Air Force","component":"AF Active","state":"Nevada","joint":null}},{"type":"Feature","geometry":{"type":"Point","coordinates":[-78.9375,33.67457]},"properties":{"name":"Myrtle Beach AFB","branch":"Air Force","component":"AF Active","state":"South Carolina","joint":null}},{"type":"Feature","geometry":{"type":"Point","coordinates":[-123.54759,38.89213]},"properties":{"name":"Point Arena AFS","branch":"Air Force","component":"AF Active","state":"California","joint":null}},{"type":"Feature","geometry":{"type":"Point","coordinates":[-76.58972,37.13198]},"properties":{"name":"Fort Eustis","branch":"Army","component":"Army Active","state":"Virginia","joint":"Joint Base Langley - Eustis"}},{"type":"Feature","geometry":{"type":"Point","coordinates":[-67.06551,18.46418]},"properties":{"name":"Isabela N00207-AB","branch":"Air Force","component":"AF Active","state":"Puerto Rico","joint":null}},{"type":"Feature","geometry":{"type":"Point","coordinates":[-66.27945,18.00414]},"properties":{"name":"Salinas N00207-JA","branch":"Air Force","component":"AF Active","state":"Puerto Rico","joint":null}},{"type":"Feature","geometry":{"type":"Point","coordinates":[-96.24452,41.34556]},"properties":{"name":"Offutt Communications Annex #2 Globecom","branch":"Air Force","component":"AF Active","state":"Nebraska","joint":null}},{"type":"Feature","geometry":{"type":"Point","coordinates":[-121.39245,38.8722]},"properties":{"name":"Lincoln Communication Annex","branch":"Air Force","component":"AF Active","state":"California","joint":null}},{"type":"Feature","geometry":{"type":"Point","coordinates":[-81.3443,27.65039]},"properties":{"name":"Arbuckle Airfield","branch":"Air Force","component":"AF Active","state":"Florida","joint":null}},{"type":"Feature","geometry":{"type":"Point","coordinates":[-117.19874,38.14079]},"properties":{"name":"Tonopah AFS Z164","branch":"Air Force","component":"AF Active","state":"Nevada","joint":null}},{"type":"Feature","geometry":{"type":"Point","coordinates":[-113.05641,32.6401]},"properties":{"name":"The Barry M Goldwater Air Force Range","branch":"Air Force","component":"AF Active","state":"Arizona","joint":null}},{"type":"Feature","geometry":{"type":"Point","coordinates":[-112.3731,33.53656]},"properties":{"name":"Luke AFB","branch":"Air Force","component":"AF Active","state":"Arizona","joint":null}},{"type":"Feature","geometry":{"type":"Point","coordinates":[-100.78305,29.35659]},"properties":{"name":"Laughlin AFB","branch":"Air Force","component":"AF Active","state":"Texas","joint":null}},{"type":"Feature","geometry":{"type":"Point","coordinates":[-88.45149,33.64152]},"properties":{"name":"Columbus AFB","branch":"Air Force","component":"AF Active","state":"Mississippi","joint":null}},{"type":"Feature","geometry":{"type":"Point","coordinates":[-99.27432,34.66396]},"properties":{"name":"Altus AFB","branch":"Air Force","component":"AF Active","state":"Oklahoma","joint":null}},{"type":"Feature","geometry":{"type":"Point","coordinates":[-97.9113,36.34121]},"properties":{"name":"Vance AFB","branch":"Air Force","component":"AF Active","state":"Oklahoma","joint":null}},{"type":"Feature","geometry":{"type":"Point","coordinates":[-100.40503,31.43223]},"properties":{"name":"Goodfellow AFB","branch":"Air Force","component":"AF Active","state":"Texas","joint":null}},{"type":"Feature","geometry":{"type":"Point","coordinates":[-98.27645,29.52992]},"properties":{"name":"Randolph AFB","branch":"Air Force","component":"AF Active","state":"Texas","joint":"Joint Base San Antonio"}},{"type":"Feature","geometry":{"type":"Point","coordinates":[-98.58479,29.37981]},"properties":{"name":"Kelly Field Annex","branch":"Air Force","component":"AF Active","state":"Texas","joint":"Joint Base San Antonio"}},{"type":"Feature","geometry":{"type":"Point","coordinates":[-98.665,29.3684]},"properties":{"name":"Lackland Training Annex","branch":"Air Force","component":"AF Active","state":"Texas","joint":"Joint Base San Antonio"}},{"type":"Feature","geometry":{"type":"Point","coordinates":[-98.50055,33.98394]},"properties":{"name":"Sheppard AFB","branch":"Air Force","component":"AF Active","state":"Texas","joint":null}},{"type":"Feature","geometry":{"type":"Point","coordinates":[-85.54977,30.0454]},"properties":{"name":"Tyndall AFB","branch":"Air Force","component":"AF Active","state":"Florida","joint":null}},{"type":"Feature","geometry":{"type":"Point","coordinates":[-86.35719,32.38248]},"properties":{"name":"Maxwell AFB","branch":"Air Force","component":"AF Active","state":"Alabama","joint":null}},{"type":"Feature","geometry":{"type":"Point","coordinates":[-86.24628,32.40667]},"properties":{"name":"Maxwell AFB Gunter Annex","branch":"Air Force","component":"AF Active","state":"Alabama","joint":null}},{"type":"Feature","geometry":{"type":"Point","coordinates":[-88.92249,30.40822]},"properties":{"name":"Keesler AFB","branch":"Air Force","component":"AF Active","state":"Mississippi","joint":null}},{"type":"Feature","geometry":{"type":"Point","coordinates":[-112.72775,32.8895]},"properties":{"name":"Gila Bend Air Force Auxiliary Field","branch":"Air Force","component":"AF Active","state":"Arizona","joint":null}},{"type":"Feature","geometry":{"type":"Point","coordinates":[-98.61826,29.38614]},"properties":{"name":"Lackland AFB","branch":"Air Force","component":"AF Active","state":"Texas","joint":"Joint Base San Antonio"}},{"type":"Feature","geometry":{"type":"Point","coordinates":[-93.6006,32.49994]},"properties":{"name":"Barksdale AFB","branch":"Air Force","component":"AF Active","state":"Louisiana","joint":null}},{"type":"Feature","geometry":{"type":"Point","coordinates":[-111.18256,47.50648]},"properties":{"name":"Malmstrom AFB","branch":"Air Force","component":"AF Active","state":"Montana","joint":null}},{"type":"Feature","geometry":{"type":"Point","coordinates":[-75.46811,39.12564]},"properties":{"name":"Dover AFB","branch":"Air Force","component":"AF Active","state":"Delaware","joint":null}},{"type":"Feature","geometry":{"type":"Point","coordinates":[-79.01042,35.17301]},"properties":{"name":"Pope AFB Site # 1","branch":"Air Force","component":"AF Active","state":"North Carolina","joint":null}},{"type":"Feature","geometry":{"type":"Point","coordinates":[-121.94194,38.26459]},"properties":{"name":"Travis AFB","branch":"Air Force","component":"AF Active","state":"California","joint":null}},{"type":"Feature","geometry":{"type":"Point","coordinates":[-104.85667,38.99449]},"properties":{"name":"USAF Academy","branch":"Air Force","component":"AF Active","state":"Colorado","joint":null}},{"type":"Feature","geometry":{"type":"Point","coordinates":[-104.30187,38.76065]},"properties":{"name":"USAF Academy Auxiliary Airfield","branch":"Air Force","component":"AF Active","state":"Colorado","joint":null}},{"type":"Feature","geometry":{"type":"Point","coordinates":[-97.90357,48.72458]},"properties":{"name":"Cavalier AS","branch":"Air Force","component":"AF Active","state":"North Dakota","joint":null}},{"type":"Feature","geometry":{"type":"Point","coordinates":[-97.08653,47.94901]},"properties":{"name":"Defense Fuel Support Point","branch":"Air Force","component":"AF Active","state":"North Dakota","joint":null}},{"type":"Feature","geometry":{"type":"Point","coordinates":[-97.39113,47.95522]},"properties":{"name":"Grand Forks AFB","branch":"Air Force","component":"AF Active","state":"North Dakota","joint":null}},{"type":"Feature","geometry":{"type":"Point","coordinates":[-82.50171,27.8448]},"properties":{"name":"MacDill AFB","branch":"Air Force","component":"AF Active","state":"Florida","joint":null}},{"type":"Feature","geometry":{"type":"Point","coordinates":[-97.26151,37.62433]},"properties":{"name":"McConnell AFB","branch":"Air Force","component":"AF Active","state":"Kansas","joint":null}},{"type":"Feature","geometry":{"type":"Point","coordinates":[-80.07939,32.89422]},"properties":{"name":"Hunley Park Military FH","branch":"Air Force","component":"AF Active","state":"South Carolina","joint":"Joint Base Charleston"}},{"type":"Feature","geometry":{"type":"Point","coordinates":[-81.07985,33.60146]},"properties":{"name":"North Air Force Auxiliary Field","branch":"Air Force","component":"AF Active","state":"South Carolina","joint":"Joint Base Charleston"}},{"type":"Feature","geometry":{"type":"Point","coordinates":[-80.05012,32.89908]},"properties":{"name":"Charleston AFB","branch":"Air Force","component":"AF Active","state":"South Carolina","joint":"Joint Base Charleston"}},{"type":"Feature","geometry":{"type":"Point","coordinates":[-79.9833,32.91296]},"properties":{"name":"Charleston Defense Fuel Support Point","branch":"Air Force","component":"AF Active","state":"South Carolina","joint":"Joint Base Charleston"}},{"type":"Feature","geometry":{"type":"Point","coordinates":[-79.06229,35.18863]},"properties":{"name":"Pope AFB Munitions Storage Area","branch":"Air Force","component":"AF Active","state":"North Carolina","joint":null}},{"type":"Feature","geometry":{"type":"Point","coordinates":[-122.48866,47.12924]},"properties":{"name":"McChord AFB","branch":"Air Force","component":"AF Active","state":"Washington","joint":"Joint Base Lewis - McChord"}},{"type":"Feature","geometry":{"type":"Point","coordinates":[-117.64805,47.61872]},"properties":{"name":"Fairchild AFB","branch":"Air Force","component":"AF Active","state":"Washington","joint":null}},{"type":"Feature","geometry":{"type":"Point","coordinates":[-90.20888,38.59137]},"properties":{"name":"St Louis AFS","branch":"Air Force","component":"AF Active","state":"Missouri","joint":null}},{"type":"Feature","geometry":{"type":"Point","coordinates":[-89.85456,38.54161]},"properties":{"name":"Scott AFB","branch":"Air Force","component":"AF Active","state":"Illinois","joint":null}},{"type":"Feature","geometry":{"type":"Point","coordinates":[-92.13893,34.90363]},"properties":{"name":"Little Rock AFB","branch":"Air Force","component":"AF Active","state":"Arkansas","joint":null}},{"type":"Feature","geometry":{"type":"Point","coordinates":[-86.53496,30.57213]},"properties":{"name":"Eglin AFB","branch":"Air Force","component":"AF Active","state":"Florida","joint":null}},{"type":"Feature","geometry":{"type":"Point","coordinates":[-86.69806,30.42957]},"properties":{"name":"Hurlburt Field","branch":"Air Force","component":"AF Active","state":"Florida","joint":null}},{"type":"Feature","geometry":{"type":"Point","coordinates":[-106.48791,34.99549]},"properties":{"name":"Kirtland AFB","branch":"Air Force","component":"AF Active","state":"New Mexico","joint":null}},{"type":"Feature","geometry":{"type":"Point","coordinates":[-117.84908,34.89079]},"properties":{"name":"Edwards AFB","branch":"Air Force","component":"AF Active","state":"California","joint":null}},{"type":"Feature","geometry":{"type":"Point","coordinates":[-84.06464,39.80672]},"properties":{"name":"Wright-Patterson AFB","branch":"Air Force","component":"AF Active","state":"Ohio","joint":null}},{"type":"Feature","geometry":{"type":"Point","coordinates":[-83.5818,32.61764]},"properties":{"name":"Robins AFB","branch":"Air Force","component":"AF Active","state":"Georgia","joint":null}},{"type":"Feature","geometry":{"type":"Point","coordinates":[-86.07878,35.36497]},"properties":{"name":"Arnold AS","branch":"Air Force","component":"AF Active","state":"Tennessee","joint":null}},{"type":"Feature","geometry":{"type":"Point","coordinates":[-97.3926,35.41915]},"properties":{"name":"Tinker AFB","branch":"Air Force","component":"AF Active","state":"Oklahoma","joint":null}},{"type":"Feature","geometry":{"type":"Point","coordinates":[-97.359,35.40313]},"properties":{"name":"Tinker Support Annex","branch":"Air Force","component":"AF Active","state":"Oklahoma","joint":null}},{"type":"Feature","geometry":{"type":"Point","coordinates":[-71.27749,42.46044]},"properties":{"name":"Hanscom AFB","branch":"Air Force","component":"AF Active","state":"Massachusetts","joint":null}},{"type":"Feature","geometry":{"type":"Point","coordinates":[-75.40954,43.22146]},"properties":{"name":"Rome Laboratory","branch":"Air Force","component":"AF Active","state":"New York","joint":null}},{"type":"Feature","geometry":{"type":"Point","coordinates":[-75.61614,43.14677]},"properties":{"name":"Verona Test Annex","branch":"Air Force","component":"AF Active","state":"New York","joint":null}},{"type":"Feature","geometry":{"type":"Point","coordinates":[-70.54274,41.75803]},"properties":{"name":"Cape Cod AS","branch":"Air Force","component":"AF Active","state":"Massachusetts","joint":null}},{"type":"Feature","geometry":{"type":"Point","coordinates":[-75.04555,43.14853]},"properties":{"name":"Newport Test Annex #2 Transmitter","branch":"Air Force","component":"AF Active","state":"New York","joint":null}},{"type":"Feature","geometry":{"type":"Point","coordinates":[-75.5913,43.12643]},"properties":{"name":"Verona Defense Fuel Support Point","branch":"Air Force","component":"AF Active","state":"New York","joint":null}},{"type":"Feature","geometry":{"type":"Point","coordinates":[-145.15386,62.40876]},"properties":{"name":"Haarp Research Station","branch":"Air Force","component":"AF Active","state":"Alaska","joint":"Joint Base Elmendorf - Richardson"}},{"type":"Feature","geometry":{"type":"Point","coordinates":[-112.24657,41.2522]},"properties":{"name":"Little Mountain Test Annex","branch":"Air Force","component":"AF Active","state":"Utah","joint":null}},{"type":"Feature","geometry":{"type":"Point","coordinates":[-111.99088,41.12787]},"properties":{"name":"Hill AFB","branch":"Air Force","component":"AF Active","state":"Utah","joint":null}},{"type":"Feature","geometry":{"type":"Point","coordinates":[-113.21725,41.02429]},"properties":{"name":"UTTR - North","branch":"Air Force","component":"AF Active","state":"Utah","joint":null}},{"type":"Feature","geometry":{"type":"Point","coordinates":[-113.55937,40.49598]},"properties":{"name":"Utah Test and Training Range South UT","branch":"Air Force","component":"AF Active","state":"Utah","joint":null}},{"type":"Feature","geometry":{"type":"Point","coordinates":[-87.31168,39.44549]},"properties":{"name":"Hulman Fld","branch":"Air Force","component":"AF Guard","state":"Indiana","joint":null}},{"type":"Feature","geometry":{"type":"Point","coordinates":[-97.83127,38.6989]},"properties":{"name":"Smoky Hill ANG Range","branch":"Air Force","component":"AF Guard","state":"Kansas","joint":null}},{"type":"Feature","geometry":{"type":"Point","coordinates":[-74.43164,39.7038]},"properties":{"name":"Warren Grove Range","branch":"Air Force","component":"AF Guard","state":"New Jersey","joint":null}},{"type":"Feature","geometry":{"type":"Point","coordinates":[-116.22159,43.55719]},"properties":{"name":"Boise Air Terminal (ANG)","branch":"Air Force","component":"AF Guard","state":"Idaho","joint":null}},{"type":"Feature","geometry":{"type":"Point","coordinates":[-111.95619,40.78784]},"properties":{"name":"Salt Lake City IAP","branch":"Air Force","component":"AF Guard","state":"Utah","joint":null}},{"type":"Feature","geometry":{"type":"Point","coordinates":[-110.94904,32.13004]},"properties":{"name":"Tucson IAP","branch":"Air Force","component":"AF Guard","state":"Arizona","joint":null}},{"type":"Feature","geometry":{"type":"Point","coordinates":[-68.82937,44.81737]},"properties":{"name":"Bangor IAP","branch":"Air Force","component":"AF Guard","state":"Maine","joint":null}},{"type":"Feature","geometry":{"type":"Point","coordinates":[-76.10206,43.10249]},"properties":{"name":"Hancock Field","branch":"Air Force","component":"AF Guard","state":"New York","joint":null}},{"type":"Feature","geometry":{"type":"Point","coordinates":[-74.0833,41.50125]},"properties":{"name":"Stewart IAP","branch":"Air Force","component":"AF Guard","state":"New York","joint":null}},{"type":"Feature","geometry":{"type":"Point","coordinates":[-82.94355,39.81291]},"properties":{"name":"Rickenbacker IAP (ANG)","branch":"Air Force","component":"AF Guard","state":"Ohio","joint":null}},{"type":"Feature","geometry":{"type":"Point","coordinates":[-80.80014,33.92261]},"properties":{"name":"McEntire Joint NGB","branch":"Air Force","component":"AF Guard","state":"South Carolina","joint":null}},{"type":"Feature","geometry":{"type":"Point","coordinates":[-82.83544,42.6111]},"properties":{"name":"Selfridge ANGB","branch":"Air Force","component":"AF Guard","state":"Michigan","joint":null}},{"type":"Feature","geometry":{"type":"Point","coordinates":[-81.58896,38.37228]},"properties":{"name":"Yeager Airport","branch":"Air Force","component":"AF Guard","state":"West Virginia","joint":null}},{"type":"Feature","geometry":{"type":"Point","coordinates":[-87.88811,42.93985]},"properties":{"name":"Gen Mitchell IAP","branch":"Air Force","component":"AF Guard","state":"Wisconsin","joint":null}},{"type":"Feature","geometry":{"type":"Point","coordinates":[-89.33562,43.1288]},"properties":{"name":"Truax ANGB","branch":"Air Force","component":"AF Guard","state":"Wisconsin","joint":null}},{"type":"Feature","geometry":{"type":"Point","coordinates":[-94.90292,39.76863]},"properties":{"name":"Rosecrans MAP (139AG)","branch":"Air Force","component":"AF Guard","state":"Missouri","joint":null}},{"type":"Feature","geometry":{"type":"Point","coordinates":[-90.25378,43.93623]},"properties":{"name":"Volk ANGB","branch":"Air Force","component":"AF Guard","state":"Wisconsin","joint":null}},{"type":"Feature","geometry":{"type":"Point","coordinates":[-70.8188,43.08897]},"properties":{"name":"Pease ANGB","branch":"Air Force","component":"AF Guard","state":"New Hampshire","joint":null}},{"type":"Feature","geometry":{"type":"Point","coordinates":[-72.70263,41.93467]},"properties":{"name":"Bradley IAP","branch":"Air Force","component":"AF Guard","state":"Connecticut","joint":null}},{"type":"Feature","geometry":{"type":"Point","coordinates":[-104.82098,41.16198]},"properties":{"name":"Cheyenne Regional Apt","branch":"Air Force","component":"AF Guard","state":"Wyoming","joint":null}},{"type":"Feature","geometry":{"type":"Point","coordinates":[-85.17812,40.98439]},"properties":{"name":"Fort Wayne IAP","branch":"Air Force","component":"AF Guard","state":"Indiana","joint":null}},{"type":"Feature","geometry":{"type":"Point","coordinates":[-93.6656,41.54434]},"properties":{"name":"Des Moines IAP","branch":"Air Force","component":"AF Guard","state":"Iowa","joint":null}},{"type":"Feature","geometry":{"type":"Point","coordinates":[-95.68132,38.95831]},"properties":{"name":"Forbes Field (ANG)","branch":"Air Force","component":"AF Guard","state":"Kansas","joint":null}},{"type":"Feature","geometry":{"type":"Point","coordinates":[-111.36443,47.47568]},"properties":{"name":"Great Falls IAP","branch":"Air Force","component":"AF Guard","state":"Montana","joint":null}},{"type":"Feature","geometry":{"type":"Point","coordinates":[-121.73754,42.15902]},"properties":{"name":"Klamath Falls Airport-Kingsley Field (ANG)","branch":"Air Force","component":"AF Guard","state":"Oregon","joint":null}},{"type":"Feature","geometry":{"type":"Point","coordinates":[-96.80359,46.91354]},"properties":{"name":"Hector IAP","branch":"Air Force","component":"AF Guard","state":"North Dakota","joint":null}},{"type":"Feature","geometry":{"type":"Point","coordinates":[-90.08338,32.3253]},"properties":{"name":"Jackson IAP, Thompson Field","branch":"Air Force","component":"AF Guard","state":"Mississippi","joint":null}},{"type":"Feature","geometry":{"type":"Point","coordinates":[-96.74234,43.58384]},"properties":{"name":"Joe Foss Field","branch":"Air Force","component":"AF Guard","state":"South Dakota","joint":null}},{"type":"Feature","geometry":{"type":"Point","coordinates":[-96.75428,40.83973]},"properties":{"name":"Lincoln MAP","branch":"Air Force","component":"AF Guard","state":"Nebraska","joint":null}},{"type":"Feature","geometry":{"type":"Point","coordinates":[-71.41841,41.59706]},"properties":{"name":"Quonset State Airport","branch":"Air Force","component":"AF Guard","state":"Rhode Island","joint":null}},{"type":"Feature","geometry":{"type":"Point","coordinates":[-96.38182,42.39699]},"properties":{"name":"Sioux Gateway Apt/Col Bud Day Field (ANG)","branch":"Air Force","component":"AF Guard","state":"Iowa","joint":null}},{"type":"Feature","geometry":{"type":"Point","coordinates":[-72.6421,40.83645]},"properties":{"name":"Francis S. Gabreski Airport","branch":"Air Force","component":"AF Guard","state":"New York","joint":null}},{"type":"Feature","geometry":{"type":"Point","coordinates":[-95.87689,36.2173]},"properties":{"name":"Tulsa IAP","branch":"Air Force","component":"AF Guard","state":"Oklahoma","joint":null}},{"type":"Feature","geometry":{"type":"Point","coordinates":[-88.74507,32.3421]},"properties":{"name":"Key Field","branch":"Air Force","component":"AF Guard","state":"Mississippi","joint":null}},{"type":"Feature","geometry":{"type":"Point","coordinates":[-89.06956,30.4089]},"properties":{"name":"Gulfport-Biloxi Regional Airport (ANG)","branch":"Air Force","component":"AF Guard","state":"Mississippi","joint":null}},{"type":"Feature","geometry":{"type":"Point","coordinates":[-117.54966,47.54753]},"properties":{"name":"Four Lakes Communications Station (ANG)","branch":"Air Force","component":"AF Guard","state":"Washington","joint":null}},{"type":"Feature","geometry":{"type":"Point","coordinates":[-104.69507,38.82109]},"properties":{"name":"Peterson AFB","branch":"Air Force","component":"AF Active","state":"Colorado","joint":null}},{"type":"Feature","geometry":{"type":"Point","coordinates":[-149.19184,64.28878]},"properties":{"name":"Clear AB","branch":"Air Force","component":"AF Active","state":"Alaska","joint":null}},{"type":"Feature","geometry":{"type":"Point","coordinates":[-120.55834,34.71355]},"properties":{"name":"Vandenberg AFB","branch":"Air Force","component":"AF Active","state":"California","joint":null}},{"type":"Feature","geometry":{"type":"Point","coordinates":[-104.75766,39.70676]},"properties":{"name":"Buckley AFB","branch":"Air Force","component":"AF Active","state":"Colorado","joint":null}},{"type":"Feature","geometry":{"type":"Point","coordinates":[-71.64119,42.93632]},"properties":{"name":"New Boston AS","branch":"Air Force","component":"AF Active","state":"New Hampshire","joint":null}},{"type":"Feature","geometry":{"type":"Point","coordinates":[-118.3816,33.91828]},"properties":{"name":"Los Angeles AFB","branch":"Air Force","component":"AF Active","state":"California","joint":null}},{"type":"Feature","geometry":{"type":"Point","coordinates":[-118.29879,33.72029]},"properties":{"name":"Fort MacArthur FH Annex","branch":"Air Force","component":"AF Active","state":"California","joint":null}},{"type":"Feature","geometry":{"type":"Point","coordinates":[-80.57093,28.482]},"properties":{"name":"Cape Canaveral AFS","branch":"Air Force","component":"AF Active","state":"Florida","joint":null}},{"type":"Feature","geometry":{"type":"Point","coordinates":[-80.60764,28.22978]},"properties":{"name":"Patrick AFB","branch":"Air Force","component":"AF Active","state":"Florida","joint":null}},{"type":"Feature","geometry":{"type":"Point","coordinates":[-104.51617,38.80244]},"properties":{"name":"Schriever AFB","branch":"Air Force","component":"AF Active","state":"Colorado","joint":null}},{"type":"Feature","geometry":{"type":"Point","coordinates":[-122.02776,37.40446]},"properties":{"name":"Onizuka AFB","branch":"Air Force","component":"AF Active","state":"California","joint":null}},{"type":"Feature","geometry":{"type":"Point","coordinates":[-67.09899,18.50929]},"properties":{"name":"Ramey AF Solar Observatory Research Site","branch":"Air Force","component":"AF Active","state":"Puerto Rico","joint":null}},{"type":"Feature","geometry":{"type":"Point","coordinates":[-80.67982,28.02081]},"properties":{"name":"Malabar Transmitter Annex","branch":"Air Force","component":"AF Active","state":"Florida","joint":null}},{"type":"Feature","geometry":{"type":"Point","coordinates":[-122.49813,37.49923]},"properties":{"name":"Pillar Point AFS","branch":"Air Force","component":"AF Active","state":"California","joint":null}},{"type":"Feature","geometry":{"type":"Point","coordinates":[-103.31792,34.38733]},"properties":{"name":"Cannon AFB","branch":"Air Force","component":"AF Active","state":"New Mexico","joint":null}},{"type":"Feature","geometry":{"type":"Point","coordinates":[-117.37316,34.58499]},"properties":{"name":"George AFB","branch":"Air Force","component":"AF Active","state":"California","joint":null}},{"type":"Feature","geometry":{"type":"Point","coordinates":[-87.38619,46.34574]},"properties":{"name":"K I Sawyer AFB","branch":"Air Force","component":"AF Active","state":"Michigan","joint":null}},{"type":"Feature","geometry":{"type":"Point","coordinates":[-103.78045,34.28463]},"properties":{"name":"Melrose Air Force Range","branch":"Air Force","component":"AF Active","state":"New Mexico","joint":null}},{"type":"Feature","geometry":{"type":"Point","coordinates":[-101.33895,48.42095]},"properties":{"name":"Minot AFB","branch":"Air Force","component":"AF Active","state":"North Dakota","joint":null}},{"type":"Feature","geometry":{"type":"Point","coordinates":[-104.86293,41.16546]},"properties":{"name":"F E Warren AFB","branch":"Air Force","component":"AF Active","state":"Wyoming","joint":null}},{"type":"Feature","geometry":{"type":"Point","coordinates":[144.85987,13.62369]},"properties":{"name":"Northwest Guam AFB","branch":"Air Force","component":"AF Active","state":"Guam","joint":"Joint Region Marianas"}},