{"type":"FeatureCollection","features":[{"type":"Feature","geometry":{"type":"Point","coordinates":[-66.917,10.5]},"properties":{"id":0,"date":"2018-08-04","place":"Caracas","country":"Venezuela","category":"vip","summary":"Explosive-laden drones detonated near President Maduro during a military parade.","source":"BBC News"}},{"type":"Feature","geometry":{"type":"Point","coordinates":[-0.19,51.148]},"properties":{"id":1,"date":"2018-12-19","place":"Gatwick Airport","country":"United Kingdom","category":"airport","summary":"Repeated drone sightings shut Gatwick for ~33 hours, disrupting ~1,000 flights and 140,000 passengers.","source":"BBC News"}},{"type":"Feature","geometry":{"type":"Point","coordinates":[-0.454,51.47]},"properties":{"id":2,"date":"2019-01-08","place":"Heathrow Airport","country":"United Kingdom","category":"airport","summary":"A drone sighting halted departures at Heathrow for about an hour.","source":"The Guardian"}},{"type":"Feature","geometry":{"type":"Point","coordinates":[56.9,26.6]},"properties":{"id":3,"date":"2019-06-20","place":"Strait of Hormuz","country":"Iran","category":"military","summary":"Iran shot down a US Navy RQ-4 Global Hawk surveillance drone.","source":"Reuters"}},{"type":"Feature","geometry":{"type":"Point","coordinates":[49.67,25.93]},"properties":{"id":4,"date":"2019-09-14","place":"Abqaiq / Khurais","country":"Saudi Arabia","category":"infrastructure","summary":"Drone and missile strikes on Aramco processing facilities cut roughly 5% of global oil supply.","source":"Reuters"}},{"type":"Feature","geometry":{"type":"Point","coordinates":[46.75,39.82]},"properties":{"id":5,"date":"2020-09-27","place":"Nagorno-Karabakh","country":"Azerbaijan/Armenia","category":"military","summary":"Loitering munitions and TB2 drones proved decisive in the Second Nagorno-Karabakh War.","source":"Reuters"}},{"type":"Feature","geometry":{"type":"Point","coordinates":[58.5,24.5]},"properties":{"id":6,"date":"2021-07-29","place":"Gulf of Oman","country":"Oman","category":"maritime","summary":"A drone attack on the tanker Mercer Street killed two crew members.","source":"Associated Press"}},{"type":"Feature","geometry":{"type":"Point","coordinates":[54.65,24.433]},"properties":{"id":7,"date":"2022-01-17","place":"Abu Dhabi","country":"United Arab Emirates","category":"infrastructure","summary":"Houthi drone attack near ADNOC fuel facilities and the airport killed three people.","source":"Reuters"}},{"type":"Feature","geometry":{"type":"Point","coordinates":[30.523,50.45]},"properties":{"id":8,"date":"2022-10-17","place":"Kyiv","country":"Ukraine","category":"infrastructure","summary":"Waves of Shahed-136 loitering munitions struck the capital and the power grid.","source":"Reuters"}},{"type":"Feature","geometry":{"type":"Point","coordinates":[37.617,55.752]},"properties":{"id":9,"date":"2023-05-03","place":"Moscow Kremlin","country":"Russia","category":"vip","summary":"Two drones were downed over the Kremlin; Russia called it an assassination attempt on the president.","source":"Reuters"}},{"type":"Feature","geometry":{"type":"Point","coordinates":[37.534,55.75]},"properties":{"id":10,"date":"2023-08-01","place":"Moscow City","country":"Russia","category":"infrastructure","summary":"Repeated drone strikes hit the Moscow-City business district over the summer.","source":"BBC News"}},{"type":"Feature","geometry":{"type":"Point","coordinates":[28.335,57.783]},"properties":{"id":11,"date":"2023-08-30","place":"Pskov","country":"Russia","category":"military","summary":"A drone raid on Pskov airfield damaged multiple Il-76 military transport aircraft.","source":"Reuters"}},{"type":"Feature","geometry":{"type":"Point","coordinates":[38.99,32.28]},"properties":{"id":12,"date":"2024-01-28","place":"Tower 22","country":"Jordan","category":"military","summary":"A one-way attack drone struck the US Tower 22 outpost, killing three American soldiers.","source":"US DoD / AP"}},{"type":"Feature","geometry":{"type":"Point","coordinates":[42,15]},"properties":{"id":13,"date":"2024-01-15","place":"Bab-el-Mandeb / Red Sea","country":"Yemen","category":"maritime","summary":"Houthi drones and missiles repeatedly targeted commercial shipping in the Red Sea.","source":"Reuters"}},{"type":"Feature","geometry":{"type":"Point","coordinates":[35.948,35.401]},"properties":{"id":14,"date":"2018-01-06","place":"Khmeimim Air Base","country":"Syria","category":"military","summary":"A swarm of improvised drones attacked Russia's Khmeimim air base.","source":"Reuters"}},{"type":"Feature","geometry":{"type":"Point","coordinates":[43.13,36.34]},"properties":{"id":15,"date":"2017-03-01","place":"Mosul","country":"Iraq","category":"military","summary":"ISIS used weaponized commercial quadcopters to drop munitions on Iraqi forces.","source":"Reuters"}},{"type":"Feature","geometry":{"type":"Point","coordinates":[50.16,26.64]},"properties":{"id":16,"date":"2021-03-19","place":"Ras Tanura","country":"Saudi Arabia","category":"infrastructure","summary":"A drone attack targeted the Ras Tanura oil port, one of the world's largest.","source":"Reuters"}},{"type":"Feature","geometry":{"type":"Point","coordinates":[36.5,45.3]},"properties":{"id":17,"date":"2023-07-17","place":"Kerch Bridge","country":"Crimea","category":"maritime","summary":"Naval surface drones struck the Kerch Strait bridge, damaging the roadway.","source":"BBC News"}},{"type":"Feature","geometry":{"type":"Point","coordinates":[36.588,50.596]},"properties":{"id":18,"date":"2022-04-25","place":"Belgorod","country":"Russia","category":"infrastructure","summary":"Cross-border drone strikes hit fuel depots and infrastructure in Belgorod.","source":"Reuters"}},{"type":"Feature","geometry":{"type":"Point","coordinates":[36.193,51.73]},"properties":{"id":19,"date":"2024-08-06","place":"Kursk","country":"Russia","category":"military","summary":"Drones featured heavily in the cross-border incursion into Kursk oblast.","source":"Reuters"}},{"type":"Feature","geometry":{"type":"Point","coordinates":[53.966,22.514]},"properties":{"id":20,"date":"2019-08-17","place":"Shaybah","country":"Saudi Arabia","category":"infrastructure","summary":"Houthi drones struck the Shaybah oilfield and its gas facilities.","source":"Reuters"}},{"type":"Feature","geometry":{"type":"Point","coordinates":[37.47,55.64]},"properties":{"id":21,"date":"2023-05-30","place":"Moscow (residential)","country":"Russia","category":"infrastructure","summary":"Multiple drones struck residential districts of Moscow in a rare deep-strike raid.","source":"Reuters"}},{"type":"Feature","geometry":{"type":"Point","coordinates":[35.139,47.838]},"properties":{"id":22,"date":"2022-03-24","place":"Zaporizhzhia","country":"Ukraine","category":"military","summary":"Reconnaissance and strike drones were used intensively around the front lines.","source":"Reuters"}},{"type":"Feature","geometry":{"type":"Point","coordinates":[44.38,33.303]},"properties":{"id":23,"date":"2021-11-07","place":"Baghdad Green Zone","country":"Iraq","category":"vip","summary":"Armed drones targeted the residence of the Iraqi prime minister.","source":"Associated Press"}},{"type":"Feature","geometry":{"type":"Point","coordinates":[35.046,48.465]},"properties":{"id":24,"date":"2024-02-02","place":"Dnipro","country":"Ukraine","category":"infrastructure","summary":"Long-range drones and missiles repeatedly struck energy infrastructure.","source":"Reuters"}},{"type":"Feature","geometry":{"type":"Point","coordinates":[44.234,33.262]},"properties":{"id":25,"date":"2020-01-03","place":"Baghdad Airport","country":"Iraq","category":"military","summary":"A US MQ-9 Reaper drone strike killed IRGC commander Qassem Soleimani.","source":"Reuters"}},{"type":"Feature","geometry":{"type":"Point","coordinates":[42.9,13.6]},"properties":{"id":26,"date":"2023-12-23","place":"Southern Red Sea","country":"Yemen","category":"maritime","summary":"One-way attack drones targeted tankers and container ships transiting the strait.","source":"US CENTCOM / Reuters"}},{"type":"Feature","geometry":{"type":"Point","coordinates":[30.723,46.482]},"properties":{"id":27,"date":"2022-09-23","place":"Odesa","country":"Ukraine","category":"infrastructure","summary":"Shahed-136 drones struck port and grid infrastructure at Odesa.","source":"Reuters"}},{"type":"Feature","geometry":{"type":"Point","coordinates":[42.917,23.906]},"properties":{"id":28,"date":"2019-05-14","place":"Afif (East-West pipeline)","country":"Saudi Arabia","category":"infrastructure","summary":"Houthi drones struck pumping stations on the main east-west oil pipeline.","source":"Reuters"}},{"type":"Feature","geometry":{"type":"Point","coordinates":[36.261,54.513]},"properties":{"id":29,"date":"2023-08-30","place":"Kaluga","country":"Russia","category":"military","summary":"Drones were reported over several regions around Moscow in coordinated raids.","source":"Reuters"}}]}